{
"type": "FeatureCollection",
"crs": { "type": "name", "properties": { "name": "urn:ogc:def:crs:OGC:1.3:CRS84" } },
                                                                                
"features": [
{ "type": "Feature", "properties": { "lon": -120.821462, "lat": 35.593832, "owner": "Chateau Margene", "name": "Chateau Margene", "street": "6996-6998 Peachy Canyon Rd", "city": "Paso Robles", "state": "CA" }, "geometry": { "type": "Point", "coordinates": [ -120.82146, 35.59383 ] } },
{ "type": "Feature", "properties": { "lon": -120.821462, "lat": 35.593832, "owner": "Roxo Port Cellars", "name": "Roxo Cellars", "street": "6996-6998 Peachy Canyon Rd", "city": "Paso Robles", "state": "CA" }, "geometry": { "type": "Point", "coordinates": [ -120.82146, 35.59383 ] } },
{ "type": "Feature", "properties": { "lon": -120.634117, "lat": 35.639361, "owner": "Robert Hall Winery", "name": "Robert Hall Winery", "street": "2975 Mitchell Ranch Way", "city": "Paso Robles", "state": "CA" }, "geometry": { "type": "Point", "coordinates": [ -120.63412, 35.63936 ] } },
{ "type": "Feature", "properties": { "lon": -120.704559, "lat": 35.728312, "owner": "Dennis John Degher", "name": "Domaine Degher Wines", "street": "8650 Centra", "city": "Paso Robles", "state": "CA" }, "geometry": { "type": "Point", "coordinates": [ -120.70456, 35.72831 ] } },
{ "type": "Feature", "properties": { "lon": -120.760990, "lat": 35.559220, "owner": "Martin Edward And Patricia Ann Croad", "name": "Croad Vineyards", "street": "3550 Las Tablas Rd", "city": "Paso Robles", "state": "CA" }, "geometry": { "type": "Point", "coordinates": [ -120.76099, 35.55922 ] } },
{ "type": "Feature", "properties": { "lon": -120.651288, "lat": 35.662963, "owner": "Coruce Vineyards And Winery Inc", "name": "Coruce Vineyards And Winery", "street": "2540-2550 Dry Creek Rd", "city": "Paso Robles", "state": "CA" }, "geometry": { "type": "Point", "coordinates": [ -120.65129, 35.66296 ] } },
{ "type": "Feature", "properties": { "lon": -120.651288, "lat": 35.662963, "owner": "Mark David Winery", "name": "Mark David Winery", "street": "2540-2550 Dry Creek Rd", "city": "Paso Robles", "state": "CA" }, "geometry": { "type": "Point", "coordinates": [ -120.65129, 35.66296 ] } },
{ "type": "Feature", "properties": { "lon": -120.651546, "lat": 35.662962, "owner": "Meyer Valley Farms", "name": "Farmer's Fury", "street": "2500-2550 Dry Creek Rd", "city": "Paso Robles", "state": "CA" }, "geometry": { "type": "Point", "coordinates": [ -120.65155, 35.66296 ] } },
{ "type": "Feature", "properties": { "lon": -120.372790, "lat": 35.630061, "owner": "Svp Winery", "name": "Svp Winery", "street": "111 Clark Rd", "city": "Shandon", "state": "CA" }, "geometry": { "type": "Point", "coordinates": [ -120.37279, 35.63006 ] } },
{ "type": "Feature", "properties": { "lon": -120.372790, "lat": 35.630061, "owner": "Row Eleven Wine, Co.", "name": null, "street": "111 Clark Rd", "city": "Shandon", "state": "CA" }, "geometry": { "type": "Point", "coordinates": [ -120.37279, 35.63006 ] } },
{ "type": "Feature", "properties": { "lon": -120.372790, "lat": 35.630061, "owner": "Aron Hill Vineyards, Inc", "name": "Aron Hill Vineyards", "street": "111 Clark Rd", "city": "Shandon", "state": "CA" }, "geometry": { "type": "Point", "coordinates": [ -120.37279, 35.63006 ] } },
{ "type": "Feature", "properties": { "lon": -120.372790, "lat": 35.630061, "owner": "Solana Cellars, Inc.", "name": "Solana Cellars", "street": "111 Clark Rd", "city": "Shandon", "state": "CA" }, "geometry": { "type": "Point", "coordinates": [ -120.37279, 35.63006 ] } },
{ "type": "Feature", "properties": { "lon": -120.701278, "lat": 35.556326, "owner": "Zoller Wine Styling", "name": "Zoller Wine Styling", "street": "45 Main St", "city": "Templeton", "state": "CA" }, "geometry": { "type": "Point", "coordinates": [ -120.70128, 35.55633 ] } },
{ "type": "Feature", "properties": { "lon": -120.701278, "lat": 35.556326, "owner": "Noah Page Smith", "name": "Chance Cellars", "street": "45 Main St", "city": "Templeton", "state": "CA" }, "geometry": { "type": "Point", "coordinates": [ -120.70128, 35.55633 ] } },
{ "type": "Feature", "properties": { "lon": -120.701278, "lat": 35.556326, "owner": "Shadow Canyon Cellars", "name": null, "street": "45 Main St", "city": "Templeton", "state": "CA" }, "geometry": { "type": "Point", "coordinates": [ -120.70128, 35.55633 ] } },
{ "type": "Feature", "properties": { "lon": -120.925242, "lat": 35.555198, "owner": "Chris Walter Olsen And C.S. Denyse Pyo Olsen", "name": "La Montanita Vineyards", "street": "9199 Via La Montanita Dr", "city": "Cambria", "state": "CA" }, "geometry": { "type": "Point", "coordinates": [ -120.92524, 35.5552 ] } },
{ "type": "Feature", "properties": { "lon": -120.479160, "lat": 35.476571, "owner": "Destiny Vineyards", "name": "Hunt Cellars", "street": "3950 Highway 41 E", "city": "Creston", "state": "CA" }, "geometry": { "type": "Point", "coordinates": [ -120.47916, 35.47657 ] } },
{ "type": "Feature", "properties": { "lon": -120.479160, "lat": 35.476571, "owner": "John August Backer & Jill Cori Backer", "name": "August Ridge Vineyards", "street": "8790 Highway 41", "city": "Creston", "state": "CA" }, "geometry": { "type": "Point", "coordinates": [ -120.47916, 35.47657 ] } },
{ "type": "Feature", "properties": { "lon": -120.733955, "lat": 35.572981, "owner": "Lone Madrone A California Corporation", "name": null, "street": "2174 Highway 46 W", "city": "Paso Robles", "state": "CA" }, "geometry": { "type": "Point", "coordinates": [ -120.73395, 35.57298 ] } },
{ "type": "Feature", "properties": { "lon": -120.720675, "lat": 35.579655, "owner": "Solar Fel Inc.", "name": "Zenaida Cellars", "street": "1550 Highway 46", "city": "Paso Robles", "state": "CA" }, "geometry": { "type": "Point", "coordinates": [ -120.72067, 35.57966 ] } },
{ "type": "Feature", "properties": { "lon": -120.532371, "lat": 35.549931, "owner": "Jerry Bello And Patricia Bello", "name": "B & E Vineyard", "street": "10,000 Creston Rd", "city": "Paso Robles", "state": "CA" }, "geometry": { "type": "Point", "coordinates": [ -120.53237, 35.54993 ] } },
{ "type": "Feature", "properties": { "lon": -120.720215, "lat": 35.579977, "owner": "Onx Winery, Inc.", "name": "Onx Wines", "street": "1550 W Highway 46", "city": "Paso Robles", "state": "CA" }, "geometry": { "type": "Point", "coordinates": [ -120.72021, 35.57998 ] } },
{ "type": "Feature", "properties": { "lon": -120.714762, "lat": 35.583557, "owner": "Edward Sellers Vineyards & Wines", "name": "Edward Sellers Vineyards & Wines", "street": "1401 W Highway 46", "city": "Paso Robles", "state": "CA" }, "geometry": { "type": "Point", "coordinates": [ -120.71476, 35.58356 ] } },
{ "type": "Feature", "properties": { "lon": -120.720215, "lat": 35.579977, "owner": "Paso De Record", "name": "Record Family Wines", "street": "1550 W Highway 46", "city": "Paso Robles", "state": "CA" }, "geometry": { "type": "Point", "coordinates": [ -120.72021, 35.57998 ] } },
{ "type": "Feature", "properties": { "lon": -120.720215, "lat": 35.579977, "owner": "Bodegas Robles", "name": "Bodegas Paso Robles", "street": "1550 W Highway 46", "city": "Paso Robles", "state": "CA" }, "geometry": { "type": "Point", "coordinates": [ -120.72021, 35.57998 ] } },
{ "type": "Feature", "properties": { "lon": -120.733955, "lat": 35.572981, "owner": "Grey Wolf Vineyards & Cellars, Inc.", "name": "Grey Wolf Vineyards & Celalrs", "street": "2174 Highway 46 W", "city": "Paso Robles", "state": "CA" }, "geometry": { "type": "Point", "coordinates": [ -120.73395, 35.57298 ] } },
{ "type": "Feature", "properties": { "lon": -120.733955, "lat": 35.572981, "owner": "Rendarrio Vineyards", "name": "Rendarrio Vineyards", "street": "2174 W Highway 46", "city": "Paso Robles", "state": "CA" }, "geometry": { "type": "Point", "coordinates": [ -120.73395, 35.57298 ] } },
{ "type": "Feature", "properties": { "lon": -120.738619, "lat": 35.570546, "owner": "Niner Wine Estates", "name": "Niner Wine Estates", "street": "2400 Hwy 46 W", "city": "Paso Robles", "state": "CA" }, "geometry": { "type": "Point", "coordinates": [ -120.73862, 35.57055 ] } },
{ "type": "Feature", "properties": { "lon": -120.709060, "lat": 35.586890, "owner": "James Kirby Jacobsen & Maribeth Jacobsen", "name": "Doce Robles Winery & Vineyard", "street": "2023 Twekve Oaks Dr", "city": "Paso Robles", "state": "CA" }, "geometry": { "type": "Point", "coordinates": [ -120.70906, 35.58689 ] } },
{ "type": "Feature", "properties": { "lon": -120.720215, "lat": 35.579977, "owner": "Phillip Lee Krumal", "name": "Asuncion Ridge Vineyards", "street": "1550 W Highway 46", "city": "Paso Robles", "state": "CA" }, "geometry": { "type": "Point", "coordinates": [ -120.72021, 35.57998 ] } },
{ "type": "Feature", "properties": { "lon": -120.758180, "lat": 35.607141, "owner": "Niels Udsen And Berit Udsen", "name": "Cobble Creek Vineyard", "street": "1717 W 46 Hwy", "city": "Paso Robles", "state": "CA" }, "geometry": { "type": "Point", "coordinates": [ -120.75818, 35.60714 ] } },
{ "type": "Feature", "properties": { "lon": -120.713494, "lat": 35.643837, "owner": "Pacific Wine Services", "name": "Pacific Wine Services", "street": "2540 & 2550 Dry Creek Rd", "city": "Paso Robles", "state": "CA" }, "geometry": { "type": "Point", "coordinates": [ -120.71349, 35.64384 ] } },
{ "type": "Feature", "properties": { "lon": -120.688320, "lat": 35.619590, "owner": "Loma Linda Vineyards", "name": "Loma Linda Vineyards", "street": "525 A Pine St", "city": "Paso Robles", "state": "CA" }, "geometry": { "type": "Point", "coordinates": [ -120.68832, 35.61959 ] } },
{ "type": "Feature", "properties": { "lon": -120.713494, "lat": 35.643837, "owner": "California Wine Works", "name": "California Wine Works", "street": "2540 &2550 Dry Creek Rd", "city": "Paso Robles", "state": "CA" }, "geometry": { "type": "Point", "coordinates": [ -120.71349, 35.64384 ] } },
{ "type": "Feature", "properties": { "lon": -120.733955, "lat": 35.572981, "owner": "Paix Sur Terre", "name": "Paix Sur Terre", "street": "2174 Hwy. 46 West", "city": "Paso Robles", "state": "CA" }, "geometry": { "type": "Point", "coordinates": [ -120.73395, 35.57298 ] } },
{ "type": "Feature", "properties": { "lon": -120.720215, "lat": 35.579977, "owner": "Aaron Jackson", "name": "Aaron Wines", "street": "1550 W Highway 46", "city": "Paso Robles", "state": "CA" }, "geometry": { "type": "Point", "coordinates": [ -120.72021, 35.57998 ] } },
{ "type": "Feature", "properties": { "lon": -120.596655, "lat": 35.256855, "owner": "Donald C. Peters", "name": "Cerro Caliente Cellars", "street": "831 B Via Esteban", "city": "San Luis Obispo", "state": "CA" }, "geometry": { "type": "Point", "coordinates": [ -120.59665, 35.25686 ] } },
{ "type": "Feature", "properties": { "lon": -120.612024, "lat": 35.630228, "owner": "Kokopelli Vineyard, L.P.", "name": "Kokopelli Vineyard", "street": "4550 Union Rd", "city": "Paso Robles", "state": "CA" }, "geometry": { "type": "Point", "coordinates": [ -120.61202, 35.63023 ] } },
{ "type": "Feature", "properties": { "lon": -120.492910, "lat": 35.352571, "owner": "Soaring Hawk Vineyards Inc.", "name": "Soaring Hawk Vineyards", "street": "4255 Vista Del Lago", "city": "Santa Margarita", "state": "CA" }, "geometry": { "type": "Point", "coordinates": [ -120.49291, 35.35257 ] } },
{ "type": "Feature", "properties": { "lon": -120.581737, "lat": 35.189219, "owner": "The Vine Intervention", "name": "Drake Wines", "street": "2195 Corbett Canyon Rd", "city": "Arroyo Grande", "state": "CA" }, "geometry": { "type": "Point", "coordinates": [ -120.58174, 35.18922 ] } },
{ "type": "Feature", "properties": { "lon": -120.395577, "lat": 35.177589, "owner": "William Scollay Greenough & Nancy Patterson Greenough", "name": "Saucelito Canyon Vineyard", "street": "1600 Saucelito Creek Rd", "city": "Arroyo Grande", "state": "CA" }, "geometry": { "type": "Point", "coordinates": [ -120.39558, 35.17759 ] } },
{ "type": "Feature", "properties": { "lon": -120.581937, "lat": 35.189574, "owner": "Kynsi Wines, Inc.", "name": null, "street": "2212 Corbett Canyon Rd", "city": "Arroyo Grande", "state": "CA" }, "geometry": { "type": "Point", "coordinates": [ -120.58194, 35.18957 ] } },
{ "type": "Feature", "properties": { "lon": -120.534988, "lat": 35.090960, "owner": "Laetitia Vineyard And Winery, Inc.", "name": "Laetitia Vineyard And Winery", "street": "453 Laetitia Vineyard Dr", "city": "Arroyo Grande", "state": "CA" }, "geometry": { "type": "Point", "coordinates": [ -120.53499, 35.09096 ] } },
{ "type": "Feature", "properties": { "lon": -120.581737, "lat": 35.189219, "owner": "Slo Wine Storage", "name": "Slo Wine Studio", "street": "2195 Corbett Canyon Rd", "city": "Arroyo Grande", "state": "CA" }, "geometry": { "type": "Point", "coordinates": [ -120.58174, 35.18922 ] } },
{ "type": "Feature", "properties": { "lon": -120.581737, "lat": 35.189219, "owner": "Corbett Vineyards", "name": null, "street": "2195 Corbett Canyon Rd", "city": "Arroyo Grande", "state": "CA" }, "geometry": { "type": "Point", "coordinates": [ -120.58174, 35.18922 ] } },
{ "type": "Feature", "properties": { "lon": -120.443987, "lat": 35.137277, "owner": "Douglas D. Timewell", "name": "Toucan Wines", "street": "3850 Acre Wood Pl", "city": "Arroyo Grande", "state": "CA" }, "geometry": { "type": "Point", "coordinates": [ -120.44399, 35.13728 ] } },
{ "type": "Feature", "properties": { "lon": -120.581737, "lat": 35.189219, "owner": "Salisbury Vineyards", "name": null, "street": "2195 Corbett Canyon Rd", "city": "Arroyo Grande", "state": "CA" }, "geometry": { "type": "Point", "coordinates": [ -120.58174, 35.18922 ] } },
{ "type": "Feature", "properties": { "lon": -120.581737, "lat": 35.189219, "owner": "Valor Wine Co.", "name": "Sinor-Lavallee", "street": "2195 Corbett Canyon Rd", "city": "Arroyo Grande", "state": "CA" }, "geometry": { "type": "Point", "coordinates": [ -120.58174, 35.18922 ] } },
{ "type": "Feature", "properties": { "lon": -120.548537, "lat": 35.182774, "owner": "Alban Vineyards, Inc.", "name": "Alban Vineyards", "street": "8575 Orcutt Rd", "city": "Arroyo Grande", "state": "CA" }, "geometry": { "type": "Point", "coordinates": [ -120.54854, 35.18277 ] } },
{ "type": "Feature", "properties": { "lon": -120.523758, "lat": 35.176443, "owner": "Talley Vineyards", "name": null, "street": "3031 Lopez Dr", "city": "Arroyo Grande", "state": "CA" }, "geometry": { "type": "Point", "coordinates": [ -120.52376, 35.17644 ] } },
{ "type": "Feature", "properties": { "lon": -120.581737, "lat": 35.189219, "owner": "Ortman Family Vineyards", "name": "Ortman Family Vineyards", "street": "2195 Corbett Canyon Rd", "city": "Arroyo Grande", "state": "CA" }, "geometry": { "type": "Point", "coordinates": [ -120.58174, 35.18922 ] } },
{ "type": "Feature", "properties": { "lon": -120.732499, "lat": 35.458996, "owner": "Stuart Goldman", "name": "Frolicking Frog", "street": "14490 San Miguel Rd", "city": "Atascadero", "state": "CA" }, "geometry": { "type": "Point", "coordinates": [ -120.7325, 35.459 ] } },
{ "type": "Feature", "properties": { "lon": -120.701111, "lat": 35.448422, "owner": "George T. Palmer", "name": "Frog Pond Mountain Winery", "street": "13400 Old Morro Rd", "city": "Atascadero", "state": "CA" }, "geometry": { "type": "Point", "coordinates": [ -120.70111, 35.44842 ] } },
{ "type": "Feature", "properties": { "lon": -121.054949, "lat": 35.572121, "owner": "Stolo Family Winery, Inc.", "name": "Treviti Wine", "street": "3770 Santa Rosa Creek Rd", "city": "Cambria", "state": "CA" }, "geometry": { "type": "Point", "coordinates": [ -121.05495, 35.57212 ] } },
{ "type": "Feature", "properties": { "lon": -120.817590, "lat": 35.478755, "owner": "Stuart Alan Selkirk And Laura Lee Selkirk", "name": "Cayucos Cellars", "street": "12530 Santa Rita Rd", "city": "Cayucos", "state": "CA" }, "geometry": { "type": "Point", "coordinates": [ -120.81759, 35.47875 ] } },
{ "type": "Feature", "properties": { "lon": -120.817590, "lat": 35.478755, "owner": "Devils Gate Wine Works", "name": null, "street": "12530 Santa Rita Rd", "city": "Cayucos", "state": "CA" }, "geometry": { "type": "Point", "coordinates": [ -120.81759, 35.47875 ] } },
{ "type": "Feature", "properties": { "lon": -120.491477, "lat": 35.516770, "owner": "Chateau Margene", "name": null, "street": "4385 La Panza Rd", "city": "Creston", "state": "CA" }, "geometry": { "type": "Point", "coordinates": [ -120.49148, 35.51677 ] } },
{ "type": "Feature", "properties": { "lon": -120.413274, "lat": 35.456209, "owner": "Eden Canyon, Inc.", "name": "Eden Canyon Vineyards", "street": "1919 Calf Canyon Hwy", "city": "Creston", "state": "CA" }, "geometry": { "type": "Point", "coordinates": [ -120.41327, 35.45621 ] } },
{ "type": "Feature", "properties": { "lon": -120.390794, "lat": 35.455668, "owner": "Margarita Vineyards", "name": null, "street": "679 Calf Canyon Hwy", "city": "Creston", "state": "CA" }, "geometry": { "type": "Point", "coordinates": [ -120.39079, 35.45567 ] } },
{ "type": "Feature", "properties": { "lon": -120.435303, "lat": 35.488915, "owner": "Shadow Run Vineyard And Winery, Inc.", "name": "Shadow Run Vineyard And Winery", "street": "2720 La Panza Rd", "city": "Creston", "state": "CA" }, "geometry": { "type": "Point", "coordinates": [ -120.4353, 35.48891 ] } },
{ "type": "Feature", "properties": { "lon": -120.390794, "lat": 35.455668, "owner": "Ancient Peak, Inc.", "name": "Ancient Peaks Winery", "street": "679 Calf Canyon Hwy", "city": "Creston", "state": "CA" }, "geometry": { "type": "Point", "coordinates": [ -120.39079, 35.45567 ] } },
{ "type": "Feature", "properties": { "lon": -120.621257, "lat": 35.113035, "owner": "Monarch Grove Winery, Inc.", "name": "Monarch Grove Winery", "street": "921 Griffin St", "city": "Grover Beach", "state": "CA" }, "geometry": { "type": "Point", "coordinates": [ -120.62126, 35.11304 ] } },
{ "type": "Feature", "properties": { "lon": -120.621398, "lat": 35.111738, "owner": "Topco Inc.", "name": "Topco Mfg.", "street": "974 Griffin St", "city": "Grover Beach", "state": "CA" }, "geometry": { "type": "Point", "coordinates": [ -120.6214, 35.11174 ] } },
{ "type": "Feature", "properties": { "lon": -121.020838, "lat": 35.508005, "owner": "Charles G. & Kimberly O. Mulligan", "name": "Harmony Cellars", "street": "3255 Harmony Valley Rd", "city": "Harmony", "state": "CA" }, "geometry": { "type": "Point", "coordinates": [ -121.02084, 35.508 ] } },
{ "type": "Feature", "properties": { "lon": -120.474608, "lat": 35.012981, "owner": "Jacqueline Carol Tanner", "name": "Ross Keller Winery", "street": "985 Orchard Rd", "city": "Nipomo", "state": "CA" }, "geometry": { "type": "Point", "coordinates": [ -120.47461, 35.01298 ] } },
{ "type": "Feature", "properties": { "lon": -120.447926, "lat": 35.094804, "owner": "Tina Pauline Grietens", "name": "Manavidou Winery", "street": "1075 Dakota Ln", "city": "Nipomo", "state": "CA" }, "geometry": { "type": "Point", "coordinates": [ -120.44793, 35.0948 ] } },
{ "type": "Feature", "properties": { "lon": -120.764579, "lat": 35.558001, "owner": "Matthew A. & Maureen M. Trevisan", "name": "Linne Calodo Cellars", "street": "3845 Oakdale Rd", "city": "Paso Robles", "state": "CA" }, "geometry": { "type": "Point", "coordinates": [ -120.76458, 35.558 ] } },
{ "type": "Feature", "properties": { "lon": -120.658319, "lat": 35.673933, "owner": "Charity Vines, Inc.", "name": "D'Anbino Vineyards & Cellars", "street": "5115 Buena Vista Dr", "city": "Paso Robles", "state": "CA" }, "geometry": { "type": "Point", "coordinates": [ -120.65832, 35.67393 ] } },
{ "type": "Feature", "properties": { "lon": -120.658319, "lat": 35.673933, "owner": "Sylvester Winery, Inc.", "name": "Sylvester Winery", "street": "5115 Buena Vista Dr", "city": "Paso Robles", "state": "CA" }, "geometry": { "type": "Point", "coordinates": [ -120.65832, 35.67393 ] } },
{ "type": "Feature", "properties": { "lon": -120.605516, "lat": 35.603767, "owner": "Frankel Revocable Trust-Warren & Katherine Frankel", "name": "Frankel Vineyards & Winery", "street": "5125 Linne Rd", "city": "Paso Robles", "state": "CA" }, "geometry": { "type": "Point", "coordinates": [ -120.60552, 35.60377 ] } },
{ "type": "Feature", "properties": { "lon": -120.859155, "lat": 35.637445, "owner": "Tablas Creek Vineyard (Lp) The Haas Vineyard Company, Inc. (Gp) The Premium Vineyard Co. (Gp)", "name": "Tablas Creek Vineyard", "street": "9339 Adelaida Rd", "city": "Paso Robles", "state": "CA" }, "geometry": { "type": "Point", "coordinates": [ -120.85916, 35.63744 ] } },
{ "type": "Feature", "properties": { "lon": -120.535361, "lat": 35.654284, "owner": "Tobin James Cellars", "name": null, "street": "8950 Union Rd", "city": "Paso Robles", "state": "CA" }, "geometry": { "type": "Point", "coordinates": [ -120.53536, 35.65428 ] } },
{ "type": "Feature", "properties": { "lon": -120.512579, "lat": 35.549760, "owner": "Gremark Vineyards L.L.C", "name": "Gremark Vineyards", "street": "5325 Rancho La Loma Linda Dr", "city": "Paso Robles", "state": "CA" }, "geometry": { "type": "Point", "coordinates": [ -120.51258, 35.54976 ] } },
{ "type": "Feature", "properties": { "lon": -120.869681, "lat": 35.641630, "owner": "Joshua O. Gibson", "name": "Gibby Enterprises", "street": "9750 Adelaida Rd", "city": "Paso Robles", "state": "CA" }, "geometry": { "type": "Point", "coordinates": [ -120.86968, 35.64163 ] } },
{ "type": "Feature", "properties": { "lon": -120.681052, "lat": 35.701456, "owner": "Mirasol Wine", "name": "Mirasol Wine", "street": "7300 N River Rd", "city": "Paso Robles", "state": "CA" }, "geometry": { "type": "Point", "coordinates": [ -120.68105, 35.70146 ] } },
{ "type": "Feature", "properties": { "lon": -120.649470, "lat": 35.673897, "owner": "Steinbeck Vineyards & Winery", "name": "Steinbeck Vineyards & Winery", "street": "6305 Buena Vista Dr", "city": "Paso Robles", "state": "CA" }, "geometry": { "type": "Point", "coordinates": [ -120.64947, 35.6739 ] } },
{ "type": "Feature", "properties": { "lon": -120.741147, "lat": 35.578359, "owner": "Bowco", "name": "Caliza Winery", "street": "2570 Anderson Rd", "city": "Paso Robles", "state": "CA" }, "geometry": { "type": "Point", "coordinates": [ -120.74115, 35.57836 ] } },
{ "type": "Feature", "properties": { "lon": -120.631747, "lat": 35.663043, "owner": "Rbz Vineyards", "name": "Rbz Vineyards", "street": "3502 Dry Creek Rd", "city": "Paso Robles", "state": "CA" }, "geometry": { "type": "Point", "coordinates": [ -120.63175, 35.66304 ] } },
{ "type": "Feature", "properties": { "lon": -120.905502, "lat": 35.655100, "owner": "Justin Vineyards & Winery", "name": "Justin Vineyards & Winery", "street": "11680 Chimney Rock Rd", "city": "Paso Robles", "state": "CA" }, "geometry": { "type": "Point", "coordinates": [ -120.9055, 35.6551 ] } },
{ "type": "Feature", "properties": { "lon": -120.780685, "lat": 35.578428, "owner": "Saxum Vineyards, Inc.", "name": null, "street": "2810 Willow Creek Rd", "city": "Paso Robles", "state": "CA" }, "geometry": { "type": "Point", "coordinates": [ -120.78068, 35.57843 ] } },
{ "type": "Feature", "properties": { "lon": -120.751755, "lat": 35.573002, "owner": "Midnight Cellars, Inc.", "name": "Midnight Cellars", "street": "2867 Township Rd", "city": "Paso Robles", "state": "CA" }, "geometry": { "type": "Point", "coordinates": [ -120.75175, 35.573 ] } },
{ "type": "Feature", "properties": { "lon": -120.578656, "lat": 35.650267, "owner": "Modern Development Company, Lp; G.A. Bianchi And D.J. Ransom, General Partner", "name": "Bianchi Vineyards", "street": "3380 Branch Rd", "city": "Paso Robles", "state": "CA" }, "geometry": { "type": "Point", "coordinates": [ -120.57866, 35.65027 ] } },
{ "type": "Feature", "properties": { "lon": -120.861948, "lat": 35.668107, "owner": "Starr Ranch", "name": "Starr Ranch", "street": "9320 Chimney Rock Rd", "city": "Paso Robles", "state": "CA" }, "geometry": { "type": "Point", "coordinates": [ -120.86195, 35.66811 ] } },
{ "type": "Feature", "properties": { "lon": -120.689830, "lat": 35.648206, "owner": "James J. Marshall And Jenifer L. Marshall", "name": "Marechal Vineyards", "street": "3230 Riverside Ave", "city": "Paso Robles", "state": "CA" }, "geometry": { "type": "Point", "coordinates": [ -120.68983, 35.64821 ] } },
{ "type": "Feature", "properties": { "lon": -120.649470, "lat": 35.673897, "owner": "Stephen J. Anglim & Steffanie J. Anglim", "name": "Anglim Winery", "street": "6305 Buena Vista Dr", "city": "Paso Robles", "state": "CA" }, "geometry": { "type": "Point", "coordinates": [ -120.64947, 35.6739 ] } },
{ "type": "Feature", "properties": { "lon": -120.658319, "lat": 35.673933, "owner": "Keith Orval Nichols", "name": "Nichols Winery & Cellars", "street": "5115 Buena Vista Dr", "city": "Paso Robles", "state": "CA" }, "geometry": { "type": "Point", "coordinates": [ -120.65832, 35.67393 ] } },
{ "type": "Feature", "properties": { "lon": -120.717810, "lat": 35.603744, "owner": "Serine-Cannonau Vineyard, Inc.", "name": "Terry Hoage Vineyards", "street": "870 Arbor Rd", "city": "Paso Robles", "state": "CA" }, "geometry": { "type": "Point", "coordinates": [ -120.71781, 35.60374 ] } },
{ "type": "Feature", "properties": { "lon": -120.569677, "lat": 35.659561, "owner": "Treasury Wine Estates Americas Company", "name": null, "street": "7000 E Highway 46", "city": "Paso Robles", "state": "CA" }, "geometry": { "type": "Point", "coordinates": [ -120.56968, 35.65956 ] } },
{ "type": "Feature", "properties": { "lon": -120.794794, "lat": 35.575826, "owner": "Denner Winery", "name": null, "street": "5414 Vineyard Dr", "city": "Paso Robles", "state": "CA" }, "geometry": { "type": "Point", "coordinates": [ -120.79479, 35.57583 ] } },
{ "type": "Feature", "properties": { "lon": -120.794794, "lat": 35.575826, "owner": "Torrin Vineyard", "name": "Torrin Vineyard", "street": "5414 Vineyard Dr", "city": "Paso Robles", "state": "CA" }, "geometry": { "type": "Point", "coordinates": [ -120.79479, 35.57583 ] } },
{ "type": "Feature", "properties": { "lon": -120.794794, "lat": 35.575826, "owner": "Brian Benjamin Benson", "name": "Brian Benson Cellars", "street": "5414 Vineyard Dr", "city": "Paso Robles", "state": "CA" }, "geometry": { "type": "Point", "coordinates": [ -120.79479, 35.57583 ] } },
{ "type": "Feature", "properties": { "lon": -120.754524, "lat": 35.626887, "owner": "Calcareous Vineyard", "name": "Calcareous Winery", "street": "3430 Peachy Canyon Rd", "city": "Paso Robles", "state": "CA" }, "geometry": { "type": "Point", "coordinates": [ -120.75452, 35.62689 ] } },
{ "type": "Feature", "properties": { "lon": -120.689830, "lat": 35.648206, "owner": "Pacific Coast Vineyards", "name": "Pacific Coast Vineyards", "street": "3230 Riverside Ave", "city": "Paso Robles", "state": "CA" }, "geometry": { "type": "Point", "coordinates": [ -120.68983, 35.64821 ] } },
{ "type": "Feature", "properties": { "lon": -120.614429, "lat": 35.627413, "owner": "Carl E. Mccasland & A. Elizabeth Mccasland", "name": "Penman Springs Vineyard", "street": "1985 Penman Springs Rd", "city": "Paso Robles", "state": "CA" }, "geometry": { "type": "Point", "coordinates": [ -120.61443, 35.62741 ] } },
{ "type": "Feature", "properties": { "lon": -120.783126, "lat": 35.560707, "owner": "Dover Canyon Winery & Vineyard", "name": "Dover Canyon Winery", "street": "4520 Vineyard Dr", "city": "Paso Robles", "state": "CA" }, "geometry": { "type": "Point", "coordinates": [ -120.78313, 35.56071 ] } },
{ "type": "Feature", "properties": { "lon": -120.689830, "lat": 35.648206, "owner": "Arroyo Ventures, Inc.", "name": "Arroyo Robles Winery", "street": "3230 Riverside Ave", "city": "Paso Robles", "state": "CA" }, "geometry": { "type": "Point", "coordinates": [ -120.68983, 35.64821 ] } },
{ "type": "Feature", "properties": { "lon": -120.861948, "lat": 35.668107, "owner": "Glenna Thompson And Richard Polischuk", "name": "Symbiosis Wines", "street": "9320 Chimney Rock Rd", "city": "Paso Robles", "state": "CA" }, "geometry": { "type": "Point", "coordinates": [ -120.86195, 35.66811 ] } },
{ "type": "Feature", "properties": { "lon": -120.861948, "lat": 35.668107, "owner": "Deodoro Cellars", "name": "Deodoro Cellars", "street": "9320 Chimney Rock Rd", "city": "Paso Robles", "state": "CA" }, "geometry": { "type": "Point", "coordinates": [ -120.86195, 35.66811 ] } },
{ "type": "Feature", "properties": { "lon": -120.847933, "lat": 35.626697, "owner": "Joseph Alexander Villicana Ii And Monica Villicana", "name": "La Fete", "street": "8530 Vineyard Dr", "city": "Paso Robles", "state": "CA" }, "geometry": { "type": "Point", "coordinates": [ -120.84793, 35.6267 ] } },
{ "type": "Feature", "properties": { "lon": -120.658319, "lat": 35.673933, "owner": "Rubato, Inc.", "name": "Vihuela Winery", "street": "5115 Buena Vista Dr", "city": "Paso Robles", "state": "CA" }, "geometry": { "type": "Point", "coordinates": [ -120.65832, 35.67393 ] } },
{ "type": "Feature", "properties": { "lon": -120.689805, "lat": 35.575175, "owner": "Andrew Vincent Zaninovich And Kathleen Frances Zaninovich", "name": "Tlo Wines", "street": "460 Marquita", "city": "Paso Robles", "state": "CA" }, "geometry": { "type": "Point", "coordinates": [ -120.68981, 35.57518 ] } },
{ "type": "Feature", "properties": { "lon": -120.689830, "lat": 35.648206, "owner": "Artisan Uprising", "name": "Artisan Uprising", "street": "3230 Riverside Ave", "city": "Paso Robles", "state": "CA" }, "geometry": { "type": "Point", "coordinates": [ -120.68983, 35.64821 ] } },
{ "type": "Feature", "properties": { "lon": -120.717425, "lat": 35.622984, "owner": "Donald A. Thiessen", "name": "Thiessen Winery", "street": "1525 Peachy Canyon Rd", "city": "Paso Robles", "state": "CA" }, "geometry": { "type": "Point", "coordinates": [ -120.71743, 35.62298 ] } },
{ "type": "Feature", "properties": { "lon": -120.587386, "lat": 35.577343, "owner": "Paul W. Hoover & Patricia A. Hoover", "name": "Still Waters Vineyard", "street": "2750 Old Grove Ln", "city": "Paso Robles", "state": "CA" }, "geometry": { "type": "Point", "coordinates": [ -120.58739, 35.57734 ] } },
{ "type": "Feature", "properties": { "lon": -120.695983, "lat": 35.717855, "owner": "Fling A. Traylor & Annette C. Traylor", "name": "San Marcos Creek Vineyard", "street": "7750 Highway 101", "city": "Paso Robles", "state": "CA" }, "geometry": { "type": "Point", "coordinates": [ -120.69598, 35.71785 ] } },
{ "type": "Feature", "properties": { "lon": -120.689830, "lat": 35.648206, "owner": "Kimberly Smith", "name": "La Montagne", "street": "3230 Riverside Ave", "city": "Paso Robles", "state": "CA" }, "geometry": { "type": "Point", "coordinates": [ -120.68983, 35.64821 ] } },
{ "type": "Feature", "properties": { "lon": -120.689830, "lat": 35.648206, "owner": "Timothy M. Pailing & Ryan A. Berg", "name": "Althea Estates", "street": "3230 Riverside Ave", "city": "Paso Robles", "state": "CA" }, "geometry": { "type": "Point", "coordinates": [ -120.68983, 35.64821 ] } },
{ "type": "Feature", "properties": { "lon": -120.716565, "lat": 35.589019, "owner": "Windward Vineyard", "name": null, "street": "1380 Live Oak Rd", "city": "Paso Robles", "state": "CA" }, "geometry": { "type": "Point", "coordinates": [ -120.71657, 35.58902 ] } },
{ "type": "Feature", "properties": { "lon": -120.861948, "lat": 35.668107, "owner": "Tracz, Kyle P. And Ralston, Ryan N.", "name": "Crooked Road Wines", "street": "9320 Chimney Rock Rd", "city": "Paso Robles", "state": "CA" }, "geometry": { "type": "Point", "coordinates": [ -120.86195, 35.66811 ] } },
{ "type": "Feature", "properties": { "lon": -120.566264, "lat": 35.598348, "owner": "Geneseo Partners", "name": "Cass Winery", "street": "7350 Linne Rd", "city": "Paso Robles", "state": "CA" }, "geometry": { "type": "Point", "coordinates": [ -120.56626, 35.59835 ] } },
{ "type": "Feature", "properties": { "lon": -120.649470, "lat": 35.673897, "owner": "Kvc Ranch, Inc.", "name": "Grizzly Republic Wines", "street": "6305 Buena Vista Dr", "city": "Paso Robles", "state": "CA" }, "geometry": { "type": "Point", "coordinates": [ -120.64947, 35.6739 ] } },
{ "type": "Feature", "properties": { "lon": -120.649470, "lat": 35.673897, "owner": "Ronald Peter Frudden", "name": "Ronan Cellars", "street": "6305 Buena Vista Dr", "city": "Paso Robles", "state": "CA" }, "geometry": { "type": "Point", "coordinates": [ -120.64947, 35.6739 ] } },
{ "type": "Feature", "properties": { "lon": -120.649470, "lat": 35.673897, "owner": "Indian Valley Vineyards", "name": "Indian Valley Vineyards", "street": "6305 Buena Vista Dr", "city": "Paso Robles", "state": "CA" }, "geometry": { "type": "Point", "coordinates": [ -120.64947, 35.6739 ] } },
{ "type": "Feature", "properties": { "lon": -120.689830, "lat": 35.648206, "owner": "Tkl Wines", "name": "Tkl Wines", "street": "3230 Riverside Ave", "city": "Paso Robles", "state": "CA" }, "geometry": { "type": "Point", "coordinates": [ -120.68983, 35.64821 ] } },
{ "type": "Feature", "properties": { "lon": -120.649470, "lat": 35.673897, "owner": "Red Head Ranch", "name": "Red Head Ranch", "street": "6305 Buena Vista Dr", "city": "Paso Robles", "state": "CA" }, "geometry": { "type": "Point", "coordinates": [ -120.64947, 35.6739 ] } },
{ "type": "Feature", "properties": { "lon": -120.658319, "lat": 35.673933, "owner": "Le Vigne Di San Domenico", "name": null, "street": "5115 Buena Vista Dr", "city": "Paso Robles", "state": "CA" }, "geometry": { "type": "Point", "coordinates": [ -120.65832, 35.67393 ] } },
{ "type": "Feature", "properties": { "lon": -120.649470, "lat": 35.673897, "owner": "Otter Cove", "name": "Otter Cove Wines", "street": "6305 Buena Vista Rd", "city": "Paso Robles", "state": "CA" }, "geometry": { "type": "Point", "coordinates": [ -120.64947, 35.6739 ] } },
{ "type": "Feature", "properties": { "lon": -120.649470, "lat": 35.673897, "owner": "La Panza", "name": "Parrish Family Vineyard", "street": "6305 Buena Vista Rd", "city": "Paso Robles", "state": "CA" }, "geometry": { "type": "Point", "coordinates": [ -120.64947, 35.6739 ] } },
{ "type": "Feature", "properties": { "lon": -120.649470, "lat": 35.673897, "owner": "Pasoport Wine Company, Inc.", "name": null, "street": "6305 Buena Vista Dr", "city": "Paso Robles", "state": "CA" }, "geometry": { "type": "Point", "coordinates": [ -120.64947, 35.6739 ] } },
{ "type": "Feature", "properties": { "lon": -120.602478, "lat": 35.631771, "owner": "Pear Valley Vineyard, Inc.", "name": "Pear Valley", "street": "4900 Union Rd", "city": "Paso Robles", "state": "CA" }, "geometry": { "type": "Point", "coordinates": [ -120.60248, 35.63177 ] } },
{ "type": "Feature", "properties": { "lon": -120.736004, "lat": 35.575978, "owner": "Clavo Cellars", "name": "Clavo Cellars", "street": "2925 Anderson Rd", "city": "Paso Robles", "state": "CA" }, "geometry": { "type": "Point", "coordinates": [ -120.736, 35.57598 ] } },
{ "type": "Feature", "properties": { "lon": -120.631747, "lat": 35.663043, "owner": "Nunno", "name": null, "street": "3502 Dry Creek Rd", "city": "Paso Robles", "state": "CA" }, "geometry": { "type": "Point", "coordinates": [ -120.63175, 35.66304 ] } },
{ "type": "Feature", "properties": { "lon": -120.596865, "lat": 35.659181, "owner": "Vantage Wines", "name": null, "street": "5625 E Highway 46", "city": "Paso Robles", "state": "CA" }, "geometry": { "type": "Point", "coordinates": [ -120.59687, 35.65918 ] } },
{ "type": "Feature", "properties": { "lon": -120.596865, "lat": 35.659181, "owner": "Jk Wine Company, Inc", "name": null, "street": "5625 E Highway 46", "city": "Paso Robles", "state": "CA" }, "geometry": { "type": "Point", "coordinates": [ -120.59687, 35.65918 ] } },
{ "type": "Feature", "properties": { "lon": -120.640869, "lat": 35.690485, "owner": "J Lohr Winery Corporation", "name": "J. Lohr Winery", "street": "6169 Airport Rd", "city": "Paso Robles", "state": "CA" }, "geometry": { "type": "Point", "coordinates": [ -120.64087, 35.69048 ] } },
{ "type": "Feature", "properties": { "lon": -120.649470, "lat": 35.673897, "owner": "Thomas C And Terrie A Banish", "name": "Black Hand Cellars", "street": "6305 Buena Vista Dr", "city": "Paso Robles", "state": "CA" }, "geometry": { "type": "Point", "coordinates": [ -120.64947, 35.6739 ] } },
{ "type": "Feature", "properties": { "lon": -120.774260, "lat": 35.563562, "owner": "Jean Louis And Heidi Susan Changala", "name": "Changala Winery", "street": "3770 Willow Creek Rd", "city": "Paso Robles", "state": "CA" }, "geometry": { "type": "Point", "coordinates": [ -120.77426, 35.56356 ] } },
{ "type": "Feature", "properties": { "lon": -120.649470, "lat": 35.673897, "owner": "Michael R. Drucker & Serena M. Friedman", "name": "Four Sisters Ranch", "street": "6305 Buena Vista Dr", "city": "Paso Robles", "state": "CA" }, "geometry": { "type": "Point", "coordinates": [ -120.64947, 35.6739 ] } },
{ "type": "Feature", "properties": { "lon": -120.763189, "lat": 35.659071, "owner": "Manucci Winery, Inc.", "name": "Manucci Winery", "street": "3775 Adelaida Rd", "city": "Paso Robles", "state": "CA" }, "geometry": { "type": "Point", "coordinates": [ -120.76319, 35.65907 ] } },
{ "type": "Feature", "properties": { "lon": -120.796959, "lat": 35.649569, "owner": "Adelaida Cellars, Inc.", "name": null, "street": "5805 Adelaida Rd", "city": "Paso Robles", "state": "CA" }, "geometry": { "type": "Point", "coordinates": [ -120.79696, 35.64957 ] } },
{ "type": "Feature", "properties": { "lon": -120.796959, "lat": 35.649569, "owner": "Adelaida Cellars, Inc", "name": "Adelaida Cellars", "street": "5805 Adelaida Rd", "city": "Paso Robles", "state": "CA" }, "geometry": { "type": "Point", "coordinates": [ -120.79696, 35.64957 ] } },
{ "type": "Feature", "properties": { "lon": -120.738731, "lat": 35.709092, "owner": "John David King", "name": "Vista Del Rey Vineyards", "street": "7340 Drake Rd", "city": "Paso Robles", "state": "CA" }, "geometry": { "type": "Point", "coordinates": [ -120.73873, 35.70909 ] } },
{ "type": "Feature", "properties": { "lon": -120.720812, "lat": 35.589109, "owner": "Treana Winery", "name": "Hope Family Wines", "street": "1585 Live Oak Rd", "city": "Paso Robles", "state": "CA" }, "geometry": { "type": "Point", "coordinates": [ -120.72081, 35.58911 ] } },
{ "type": "Feature", "properties": { "lon": -120.689830, "lat": 35.648206, "owner": "Jumping J Investments, Inc.", "name": "Oak Meadow Winery", "street": "3230 Riverside Ave", "city": "Paso Robles", "state": "CA" }, "geometry": { "type": "Point", "coordinates": [ -120.68983, 35.64821 ] } },
{ "type": "Feature", "properties": { "lon": -120.547308, "lat": 35.659385, "owner": "Chumeia Vineyards, Inc.", "name": "Chumeia Vineyards", "street": "8331 E Highway 46", "city": "Paso Robles", "state": "CA" }, "geometry": { "type": "Point", "coordinates": [ -120.54731, 35.65938 ] } },
{ "type": "Feature", "properties": { "lon": -120.738110, "lat": 35.707751, "owner": "Steven S Christian & Guadalupe S Lazo", "name": "Christian Lazo Winery", "street": "7235 Non Pariel Rd", "city": "Paso Robles", "state": "CA" }, "geometry": { "type": "Point", "coordinates": [ -120.73811, 35.70775 ] } },
{ "type": "Feature", "properties": { "lon": -120.863330, "lat": 35.665334, "owner": "Kukkula, Inc.", "name": "Kukkula", "street": "9515 Chimney Rock Rd", "city": "Paso Robles", "state": "CA" }, "geometry": { "type": "Point", "coordinates": [ -120.86333, 35.66533 ] } },
{ "type": "Feature", "properties": { "lon": -120.651222, "lat": 35.662961, "owner": "Page John Shaw And Lisa Cuevas Shaw", "name": "Alma Sol Winery", "street": "2550 Dry Creek Rd", "city": "Paso Robles", "state": "CA" }, "geometry": { "type": "Point", "coordinates": [ -120.65122, 35.66296 ] } },
{ "type": "Feature", "properties": { "lon": -120.743196, "lat": 35.651016, "owner": "Nicora Wines", "name": null, "street": "2725 Adelaida Rd", "city": "Paso Robles", "state": "CA" }, "geometry": { "type": "Point", "coordinates": [ -120.7432, 35.65102 ] } },
{ "type": "Feature", "properties": { "lon": -120.685727, "lat": 35.627303, "owner": "Indie Wine Corporation", "name": "Spire Wines, Ltd", "street": "1227 Paso Robles St", "city": "Paso Robles", "state": "CA" }, "geometry": { "type": "Point", "coordinates": [ -120.68573, 35.6273 ] } },
{ "type": "Feature", "properties": { "lon": -120.627335, "lat": 35.648852, "owner": "Eberle Winery, Ltd. (A Limited Partnership) W. Gary Eberle (General Partner)", "name": "Eberle Winery, Ltd.", "street": "3810 Highway 46 E", "city": "Paso Robles", "state": "CA" }, "geometry": { "type": "Point", "coordinates": [ -120.62734, 35.64885 ] } },
{ "type": "Feature", "properties": { "lon": -120.512601, "lat": 35.557868, "owner": "Saxby Winery And Vineyard", "name": null, "street": "4880 Glenhill Ln", "city": "Paso Robles", "state": "CA" }, "geometry": { "type": "Point", "coordinates": [ -120.5126, 35.55787 ] } },
{ "type": "Feature", "properties": { "lon": -120.766518, "lat": 35.626132, "owner": "Steven Arthur Martell", "name": null, "street": "4045 Peachy Canyon Rd", "city": "Paso Robles", "state": "CA" }, "geometry": { "type": "Point", "coordinates": [ -120.76652, 35.62613 ] } },
{ "type": "Feature", "properties": { "lon": -120.794794, "lat": 35.575826, "owner": "Jacob Toft", "name": null, "street": "5414 Vineyard Dr", "city": "Paso Robles", "state": "CA" }, "geometry": { "type": "Point", "coordinates": [ -120.79479, 35.57583 ] } },
{ "type": "Feature", "properties": { "lon": -120.794794, "lat": 35.575826, "owner": "Graves Winegrowers, Inc.", "name": null, "street": "5414 Vineyard Dr", "city": "Paso Robles", "state": "CA" }, "geometry": { "type": "Point", "coordinates": [ -120.79479, 35.57583 ] } },
{ "type": "Feature", "properties": { "lon": -120.794794, "lat": 35.575826, "owner": "Armstrong Vineyards, Inc.", "name": null, "street": "5414 Vineyard Dr", "city": "Paso Robles", "state": "CA" }, "geometry": { "type": "Point", "coordinates": [ -120.79479, 35.57583 ] } },
{ "type": "Feature", "properties": { "lon": -120.794794, "lat": 35.575826, "owner": "Edmond August Sauret", "name": "Edmond August Wines", "street": "5414 Vineyard Dr", "city": "Paso Robles", "state": "CA" }, "geometry": { "type": "Point", "coordinates": [ -120.79479, 35.57583 ] } },
{ "type": "Feature", "properties": { "lon": -120.794794, "lat": 35.575826, "owner": "Pipistrella Wine Company", "name": "Ranchero Cellars", "street": "5414 Vineyard Dr", "city": "Paso Robles", "state": "CA" }, "geometry": { "type": "Point", "coordinates": [ -120.79479, 35.57583 ] } },
{ "type": "Feature", "properties": { "lon": -120.649470, "lat": 35.673897, "owner": "Stanger Vineyard", "name": "Stanger Vineyards", "street": "6305 Buena Vista Dr", "city": "Paso Robles", "state": "CA" }, "geometry": { "type": "Point", "coordinates": [ -120.64947, 35.6739 ] } },
{ "type": "Feature", "properties": { "lon": -120.689830, "lat": 35.648206, "owner": "Patrick Scott Frisco", "name": "Frisco Cellars", "street": "3230 Riverside Ave", "city": "Paso Robles", "state": "CA" }, "geometry": { "type": "Point", "coordinates": [ -120.68983, 35.64821 ] } },
{ "type": "Feature", "properties": { "lon": -120.689830, "lat": 35.648206, "owner": "Cj Cellars, Inc.", "name": "Les Deux Chats Cellars", "street": "3230 Riverside Ave", "city": "Paso Robles", "state": "CA" }, "geometry": { "type": "Point", "coordinates": [ -120.68983, 35.64821 ] } },
{ "type": "Feature", "properties": { "lon": -120.689830, "lat": 35.648206, "owner": "Red Zeppelin Winery, Inc.", "name": "Red Zeppelin Winery", "street": "3230 Riverside Ave", "city": "Paso Robles", "state": "CA" }, "geometry": { "type": "Point", "coordinates": [ -120.68983, 35.64821 ] } },
{ "type": "Feature", "properties": { "lon": -120.651546, "lat": 35.662959, "owner": "Frisby Cellars, Inc.", "name": null, "street": "2500 Dry Creek Rd", "city": "Paso Robles", "state": "CA" }, "geometry": { "type": "Point", "coordinates": [ -120.65155, 35.66296 ] } },
{ "type": "Feature", "properties": { "lon": -120.713362, "lat": 35.593946, "owner": "Eugene Michael Perata", "name": "Fratelli Perata", "street": "1595 Arbor Rd", "city": "Paso Robles", "state": "CA" }, "geometry": { "type": "Point", "coordinates": [ -120.71336, 35.59395 ] } },
{ "type": "Feature", "properties": { "lon": -120.631747, "lat": 35.663043, "owner": "Twin Coyotes Winery, Inc.", "name": null, "street": "3502 Dry Creek Rd", "city": "Paso Robles", "state": "CA" }, "geometry": { "type": "Point", "coordinates": [ -120.63175, 35.66304 ] } },
{ "type": "Feature", "properties": { "lon": -120.593116, "lat": 35.606317, "owner": "Gelfand, Leonard Howard And Janet Bernice", "name": "Gelfand Vineyards", "street": "5530 Dresser Ranch Rd", "city": "Paso Robles", "state": "CA" }, "geometry": { "type": "Point", "coordinates": [ -120.59312, 35.60632 ] } },
{ "type": "Feature", "properties": { "lon": -120.649470, "lat": 35.673897, "owner": "Todd Aaron Clift", "name": "Moonstone Cellars", "street": "6305 Buena Vista Rd", "city": "Paso Robles", "state": "CA" }, "geometry": { "type": "Point", "coordinates": [ -120.64947, 35.6739 ] } },
{ "type": "Feature", "properties": { "lon": -120.751554, "lat": 35.566190, "owner": "Red Soles", "name": "Segunda Vida", "street": "3230 Oakdale Rd", "city": "Paso Robles", "state": "CA" }, "geometry": { "type": "Point", "coordinates": [ -120.75155, 35.56619 ] } },
{ "type": "Feature", "properties": { "lon": -120.730384, "lat": 35.674080, "owner": "Chronic Cellars, Inc.", "name": "Chronic Cellars", "street": "2025 Nacimiento Lake Dr", "city": "Paso Robles", "state": "CA" }, "geometry": { "type": "Point", "coordinates": [ -120.73038, 35.67408 ] } },
{ "type": "Feature", "properties": { "lon": -120.794794, "lat": 35.575826, "owner": "Mark Clement Adams & Ciera Lamborn Adams", "name": "Ledge Vineyards", "street": "5414 Vineyard Dr", "city": "Paso Robles", "state": "CA" }, "geometry": { "type": "Point", "coordinates": [ -120.79479, 35.57583 ] } },
{ "type": "Feature", "properties": { "lon": -120.627371, "lat": 35.663634, "owner": "Treana Winery", "name": null, "street": "4280 Secondwind Way", "city": "Paso Robles", "state": "CA" }, "geometry": { "type": "Point", "coordinates": [ -120.62737, 35.66363 ] } },
{ "type": "Feature", "properties": { "lon": -120.730384, "lat": 35.674080, "owner": "Douglas P. Beckett & Nancy Beckett", "name": "Cirque Du Vin", "street": "2025 Nacimiento Lake Dr", "city": "Paso Robles", "state": "CA" }, "geometry": { "type": "Point", "coordinates": [ -120.73038, 35.67408 ] } },
{ "type": "Feature", "properties": { "lon": -120.769145, "lat": 35.625238, "owner": "Gill Cellars", "name": "Michael Gill Cellars", "street": "4125 Peachy Canyon Rd", "city": "Paso Robles", "state": "CA" }, "geometry": { "type": "Point", "coordinates": [ -120.76915, 35.62524 ] } },
{ "type": "Feature", "properties": { "lon": -120.651287, "lat": 35.662960, "owner": "Matthew Christopher Villard", "name": null, "street": "2540 Dry Creek Rd", "city": "Paso Robles", "state": "CA" }, "geometry": { "type": "Point", "coordinates": [ -120.65129, 35.66296 ] } },
{ "type": "Feature", "properties": { "lon": -120.685727, "lat": 35.627303, "owner": "Quigley Fine Wines", "name": null, "street": "1227 Paso Robles St", "city": "Paso Robles", "state": "CA" }, "geometry": { "type": "Point", "coordinates": [ -120.68573, 35.6273 ] } },
{ "type": "Feature", "properties": { "lon": -120.631747, "lat": 35.663043, "owner": "Alan Georgeff", "name": "Georgeff Vineyards", "street": "3502 Dry Creek Rd", "city": "Paso Robles", "state": "CA" }, "geometry": { "type": "Point", "coordinates": [ -120.63175, 35.66304 ] } },
{ "type": "Feature", "properties": { "lon": -120.689830, "lat": 35.648206, "owner": "Horn Enterprises Inc.", "name": "In Vino Veritas", "street": "3230 Riverside Ave", "city": "Paso Robles", "state": "CA" }, "geometry": { "type": "Point", "coordinates": [ -120.68983, 35.64821 ] } },
{ "type": "Feature", "properties": { "lon": -120.766518, "lat": 35.626132, "owner": "Minassian-Young Vineyard, Inc.", "name": "Minassian-Young Winery", "street": "4045 Peachy Canyon Rd", "city": "Paso Robles", "state": "CA" }, "geometry": { "type": "Point", "coordinates": [ -120.76652, 35.62613 ] } },
{ "type": "Feature", "properties": { "lon": -120.689830, "lat": 35.648206, "owner": "Michael Dusi Logistics Warehouse, Inc.", "name": null, "street": "3230 Riverside Ave", "city": "Paso Robles", "state": "CA" }, "geometry": { "type": "Point", "coordinates": [ -120.68983, 35.64821 ] } },
{ "type": "Feature", "properties": { "lon": -120.649470, "lat": 35.673897, "owner": "Kiler Grove Winegrowers", "name": null, "street": "6305 Buena Vista Dr", "city": "Paso Robles", "state": "CA" }, "geometry": { "type": "Point", "coordinates": [ -120.64947, 35.6739 ] } },
{ "type": "Feature", "properties": { "lon": -120.843872, "lat": 35.613179, "owner": "La Granja Winery, Inc.", "name": "La Granja Winery", "street": "8355 Vineyard Dr", "city": "Paso Robles", "state": "CA" }, "geometry": { "type": "Point", "coordinates": [ -120.84387, 35.61318 ] } },
{ "type": "Feature", "properties": { "lon": -120.651413, "lat": 35.650055, "owner": "Justin Vineyards & Winery", "name": "Justin Vineyards & Winery", "street": "2265 Wisteria Ln", "city": "Paso Robles", "state": "CA" }, "geometry": { "type": "Point", "coordinates": [ -120.65141, 35.65005 ] } },
{ "type": "Feature", "properties": { "lon": -120.717555, "lat": 35.702118, "owner": "Michael Alex Michaud And Carol Jane Hastings", "name": "Michaud Vineyard", "street": "1172 San Marcos Rd", "city": "Paso Robles", "state": "CA" }, "geometry": { "type": "Point", "coordinates": [ -120.71756, 35.70212 ] } },
{ "type": "Feature", "properties": { "lon": -120.667739, "lat": 35.663975, "owner": "Calipaso Winery", "name": null, "street": "4230 Buena Vista Dr", "city": "Paso Robles", "state": "CA" }, "geometry": { "type": "Point", "coordinates": [ -120.66774, 35.66397 ] } },
{ "type": "Feature", "properties": { "lon": -120.649616, "lat": 35.684775, "owner": "Lawrence Andrew Cellars", "name": "Via Vega Winery", "street": "2378 Adobe Rd", "city": "Paso Robles", "state": "CA" }, "geometry": { "type": "Point", "coordinates": [ -120.64962, 35.68477 ] } },
{ "type": "Feature", "properties": { "lon": -120.649470, "lat": 35.673897, "owner": "Thunderbolt Junction Enterprises, Inc.", "name": "Twilight Cellars", "street": "6305 Buena Vista Dr", "city": "Paso Robles", "state": "CA" }, "geometry": { "type": "Point", "coordinates": [ -120.64947, 35.6739 ] } },
{ "type": "Feature", "properties": { "lon": -120.649470, "lat": 35.673897, "owner": "Mark S. Hutchenreuther", "name": "Chateau De Deighton Winery", "street": "6305 Buena Vista Dr", "city": "Paso Robles", "state": "CA" }, "geometry": { "type": "Point", "coordinates": [ -120.64947, 35.6739 ] } },
{ "type": "Feature", "properties": { "lon": -120.649470, "lat": 35.673897, "owner": "Storey Wine Group", "name": "Storey Wine Group", "street": "6305 Buena Vista Dr", "city": "Paso Robles", "state": "CA" }, "geometry": { "type": "Point", "coordinates": [ -120.64947, 35.6739 ] } },
{ "type": "Feature", "properties": { "lon": -120.649470, "lat": 35.673897, "owner": "Vista Creek Cellars", "name": "Vista Creek Cellars", "street": "6305 Buena Vista Dr", "city": "Paso Robles", "state": "CA" }, "geometry": { "type": "Point", "coordinates": [ -120.64947, 35.6739 ] } },
{ "type": "Feature", "properties": { "lon": -120.649470, "lat": 35.673897, "owner": "Pozo Valley", "name": "Pozo Valley", "street": "6305 Buena Vista Dr", "city": "Paso Robles", "state": "CA" }, "geometry": { "type": "Point", "coordinates": [ -120.64947, 35.6739 ] } },
{ "type": "Feature", "properties": { "lon": -120.649470, "lat": 35.673897, "owner": "Three Guys And A Girl, Inc.", "name": "Vita Luce Cellars", "street": "6305 Buena Vista Dr", "city": "Paso Robles", "state": "CA" }, "geometry": { "type": "Point", "coordinates": [ -120.64947, 35.6739 ] } },
{ "type": "Feature", "properties": { "lon": -120.649470, "lat": 35.673897, "owner": "Roger R. Nicolas", "name": "R N Estate", "street": "6305 Buena Vista Dr", "city": "Paso Robles", "state": "CA" }, "geometry": { "type": "Point", "coordinates": [ -120.64947, 35.6739 ] } },
{ "type": "Feature", "properties": { "lon": -120.689830, "lat": 35.648206, "owner": "Charles N. Mccollough, Jr.", "name": "Triassic Legacy Vineyards", "street": "3230 Riverside Ave", "city": "Paso Robles", "state": "CA" }, "geometry": { "type": "Point", "coordinates": [ -120.68983, 35.64821 ] } },
{ "type": "Feature", "properties": { "lon": -120.651287, "lat": 35.662960, "owner": "Burns, Donald T & Claudia K", "name": "Turtle Rock Vineyards", "street": "2540 Dry Creek Rd", "city": "Paso Robles", "state": "CA" }, "geometry": { "type": "Point", "coordinates": [ -120.65129, 35.66296 ] } },
{ "type": "Feature", "properties": { "lon": -120.736004, "lat": 35.575978, "owner": "Sharp's Hill Vineyards", "name": null, "street": "2925 Anderson Rd", "city": "Paso Robles", "state": "CA" }, "geometry": { "type": "Point", "coordinates": [ -120.736, 35.57598 ] } },
{ "type": "Feature", "properties": { "lon": -120.796909, "lat": 35.649677, "owner": "Lone Madrone, A California Corporation", "name": "Lone Madrone", "street": "5800 Adelaida Rd", "city": "Paso Robles", "state": "CA" }, "geometry": { "type": "Point", "coordinates": [ -120.79691, 35.64968 ] } },
{ "type": "Feature", "properties": { "lon": -120.821146, "lat": 35.591742, "owner": "Opolo Wines, Lp, Opolo Management, Gp", "name": null, "street": "7110 Vineyard Dr", "city": "Paso Robles", "state": "CA" }, "geometry": { "type": "Point", "coordinates": [ -120.82115, 35.59174 ] } },
{ "type": "Feature", "properties": { "lon": -120.571004, "lat": 35.637631, "owner": "Barr Enterprises, Inc.", "name": "Barr Estate Winery", "street": "6950 Union Rd", "city": "Paso Robles", "state": "CA" }, "geometry": { "type": "Point", "coordinates": [ -120.571, 35.63763 ] } },
{ "type": "Feature", "properties": { "lon": -120.689830, "lat": 35.648206, "owner": "John Kemak", "name": "Two Brothers Farm", "street": "3230 Riverside Ave", "city": "Paso Robles", "state": "CA" }, "geometry": { "type": "Point", "coordinates": [ -120.68983, 35.64821 ] } },
{ "type": "Feature", "properties": { "lon": -120.689731, "lat": 35.576409, "owner": "First Crush, Inc.", "name": "First Crush", "street": "2975 Limestone Way", "city": "Paso Robles", "state": "CA" }, "geometry": { "type": "Point", "coordinates": [ -120.68973, 35.57641 ] } },
{ "type": "Feature", "properties": { "lon": -120.896457, "lat": 35.654183, "owner": "Kathleen Conway", "name": "Carmody Mcknight Estate Wines", "street": "11240 Chimney Rock Rd", "city": "Paso Robles", "state": "CA" }, "geometry": { "type": "Point", "coordinates": [ -120.89646, 35.65418 ] } },
{ "type": "Feature", "properties": { "lon": -120.717082, "lat": 35.608777, "owner": "The Lock Agricultural Ventures", "name": "Ecluse", "street": "1520 Kiler Canyon Rd", "city": "Paso Robles", "state": "CA" }, "geometry": { "type": "Point", "coordinates": [ -120.71708, 35.60878 ] } },
{ "type": "Feature", "properties": { "lon": -120.734905, "lat": 35.575146, "owner": "Dark Star Cellars", "name": "Dark Star Cellars", "street": "2985 Anderson Rd", "city": "Paso Robles", "state": "CA" }, "geometry": { "type": "Point", "coordinates": [ -120.7349, 35.57515 ] } },
{ "type": "Feature", "properties": { "lon": -120.685336, "lat": 35.734559, "owner": "Fetzer Vineyards", "name": null, "street": "8998 N River Rd", "city": "Paso Robles", "state": "CA" }, "geometry": { "type": "Point", "coordinates": [ -120.68534, 35.73456 ] } },
{ "type": "Feature", "properties": { "lon": -120.832599, "lat": 35.598353, "owner": "Hammersky", "name": "Hammersky", "street": "7725 Vineyard Dr", "city": "Paso Robles", "state": "CA" }, "geometry": { "type": "Point", "coordinates": [ -120.8326, 35.59835 ] } },
{ "type": "Feature", "properties": { "lon": -120.631772, "lat": 35.663042, "owner": "Bacanal Usa, Inc.", "name": "Bacanal Winery", "street": "3500 Dry Creek Rd", "city": "Paso Robles", "state": "CA" }, "geometry": { "type": "Point", "coordinates": [ -120.63177, 35.66304 ] } },
{ "type": "Feature", "properties": { "lon": -120.631747, "lat": 35.663043, "owner": "Cynthia Lewis", "name": null, "street": "3502 Dry Creek Rd", "city": "Paso Robles", "state": "CA" }, "geometry": { "type": "Point", "coordinates": [ -120.63175, 35.66304 ] } },
{ "type": "Feature", "properties": { "lon": -120.772262, "lat": 35.587481, "owner": "Robert George Dunning And Jo-Ann Dunning", "name": "Dunning Vineyards", "street": "1953 Niderer Rd", "city": "Paso Robles", "state": "CA" }, "geometry": { "type": "Point", "coordinates": [ -120.77226, 35.58748 ] } },
{ "type": "Feature", "properties": { "lon": -120.714749, "lat": 35.586733, "owner": "Summerwood Winery & Inn, Inc.", "name": "Summerwood", "street": "2175 Arbor Rd", "city": "Paso Robles", "state": "CA" }, "geometry": { "type": "Point", "coordinates": [ -120.71475, 35.58673 ] } },
{ "type": "Feature", "properties": { "lon": -120.785924, "lat": 35.563857, "owner": "H. A. Buell Inc", "name": "Hearhstone Vineyard & Winery", "street": "5070 Vineyard Dr", "city": "Paso Robles", "state": "CA" }, "geometry": { "type": "Point", "coordinates": [ -120.78592, 35.56386 ] } },
{ "type": "Feature", "properties": { "lon": -120.689805, "lat": 35.575175, "owner": "22 Hundred Cellars, Inc.", "name": "Field Recordings", "street": "460 Marquita", "city": "Paso Robles", "state": "CA" }, "geometry": { "type": "Point", "coordinates": [ -120.68981, 35.57518 ] } },
{ "type": "Feature", "properties": { "lon": -120.631747, "lat": 35.663043, "owner": "Belle Noel Wines", "name": "Nobelle", "street": "3502 Dry Creek Rd", "city": "Paso Robles", "state": "CA" }, "geometry": { "type": "Point", "coordinates": [ -120.63175, 35.66304 ] } },
{ "type": "Feature", "properties": { "lon": -120.745924, "lat": 35.566666, "owner": "Destiny Vineyards", "name": "Hunt Cellars", "street": "2875 Oakdale Rd", "city": "Paso Robles", "state": "CA" }, "geometry": { "type": "Point", "coordinates": [ -120.74592, 35.56667 ] } },
{ "type": "Feature", "properties": { "lon": -120.689830, "lat": 35.648206, "owner": "Adam Leo Scattini And Devin Renee Scattini", "name": "Scattini Cellars", "street": "3230 Riverside Ave", "city": "Paso Robles", "state": "CA" }, "geometry": { "type": "Point", "coordinates": [ -120.68983, 35.64821 ] } },
{ "type": "Feature", "properties": { "lon": -120.843227, "lat": 35.612293, "owner": "Whalebone Winery, Inc.", "name": null, "street": "8325 Vineyard Dr", "city": "Paso Robles", "state": "CA" }, "geometry": { "type": "Point", "coordinates": [ -120.84323, 35.61229 ] } },
{ "type": "Feature", "properties": { "lon": -120.651546, "lat": 35.662959, "owner": "Donald Larry Stanton And Teresa Ann Stanton", "name": "Cerro Prieto Vineyard", "street": "2500 Dry Creek Rd", "city": "Paso Robles", "state": "CA" }, "geometry": { "type": "Point", "coordinates": [ -120.65155, 35.66296 ] } },
{ "type": "Feature", "properties": { "lon": -120.651546, "lat": 35.662959, "owner": "Pithy Little Wine Company, Inc.", "name": "Pithy Little Wine Co.", "street": "2500 Dry Creek Rd", "city": "Paso Robles", "state": "CA" }, "geometry": { "type": "Point", "coordinates": [ -120.65155, 35.66296 ] } },
{ "type": "Feature", "properties": { "lon": -120.651546, "lat": 35.662959, "owner": "Custom Crush Paso Robles", "name": "Custom Crush Paso Robles", "street": "2500 Dry Creek Rd", "city": "Paso Robles", "state": "CA" }, "geometry": { "type": "Point", "coordinates": [ -120.65155, 35.66296 ] } },
{ "type": "Feature", "properties": { "lon": -120.826147, "lat": 35.596239, "owner": "Kresser Group", "name": "Diamond Jem Vineyard", "street": "7290 Vineyard Dr", "city": "Paso Robles", "state": "CA" }, "geometry": { "type": "Point", "coordinates": [ -120.82615, 35.59624 ] } },
{ "type": "Feature", "properties": { "lon": -120.739512, "lat": 35.666569, "owner": "Curtis J. Lockshaw", "name": null, "street": "4550 Oak Flat Rd", "city": "Paso Robles", "state": "CA" }, "geometry": { "type": "Point", "coordinates": [ -120.73951, 35.66657 ] } },
{ "type": "Feature", "properties": { "lon": -120.794794, "lat": 35.575826, "owner": "H. A. Buell, Inc.", "name": "Hearthstone Vineyard & Winery", "street": "5414 Vineyard Dr", "city": "Paso Robles", "state": "CA" }, "geometry": { "type": "Point", "coordinates": [ -120.79479, 35.57583 ] } },
{ "type": "Feature", "properties": { "lon": -120.794794, "lat": 35.575826, "owner": "Bassetti Vineyards, Inc.", "name": "Bassetti Vineyards", "street": "5414 Vineyard Dr", "city": "Paso Robles", "state": "CA" }, "geometry": { "type": "Point", "coordinates": [ -120.79479, 35.57583 ] } },
{ "type": "Feature", "properties": { "lon": -120.794794, "lat": 35.575826, "owner": "The Ranger", "name": null, "street": "5414 Vineyard Dr", "city": "Paso Robles", "state": "CA" }, "geometry": { "type": "Point", "coordinates": [ -120.79479, 35.57583 ] } },
{ "type": "Feature", "properties": { "lon": -120.631747, "lat": 35.663043, "owner": "Floating Feather Cellars", "name": "Floating Feather Cellars", "street": "3502 Dry Creek Rd", "city": "Paso Robles", "state": "CA" }, "geometry": { "type": "Point", "coordinates": [ -120.63175, 35.66304 ] } },
{ "type": "Feature", "properties": { "lon": -120.831030, "lat": 35.596924, "owner": "Oso Libre Ranch, Inc.", "name": "Oso Libre", "street": "7383 Vineyard Dr", "city": "Paso Robles", "state": "CA" }, "geometry": { "type": "Point", "coordinates": [ -120.83103, 35.59692 ] } },
{ "type": "Feature", "properties": { "lon": -120.693974, "lat": 35.596260, "owner": "Farley-Simons Cellars", "name": "Farley-Simons Cellars", "street": "1337 Vendels Cir", "city": "Paso Robles", "state": "CA" }, "geometry": { "type": "Point", "coordinates": [ -120.69397, 35.59626 ] } },
{ "type": "Feature", "properties": { "lon": -120.689830, "lat": 35.648206, "owner": "Hartigan Cellars, Inc.", "name": "Hartigan Cellars", "street": "3230 Riverside Ave", "city": "Paso Robles", "state": "CA" }, "geometry": { "type": "Point", "coordinates": [ -120.68983, 35.64821 ] } },
{ "type": "Feature", "properties": { "lon": -120.517205, "lat": 35.663573, "owner": "Bonzarlo Winery", "name": "Bonzarlo Winery", "street": "5050 Estrella Rd", "city": "Paso Robles", "state": "CA" }, "geometry": { "type": "Point", "coordinates": [ -120.5172, 35.66357 ] } },
{ "type": "Feature", "properties": { "lon": -120.649470, "lat": 35.673897, "owner": "Harry E. Miller & Roger A. Miller", "name": "Parkfield Vineyards", "street": "6305 Buena Vista Dr", "city": "Paso Robles", "state": "CA" }, "geometry": { "type": "Point", "coordinates": [ -120.64947, 35.6739 ] } },
{ "type": "Feature", "properties": { "lon": -120.597696, "lat": 35.637477, "owner": "Francesco And Carolynn Chiyoko Grande", "name": "Falcon Nest Vineyard And Winery", "street": "5185 Union Rd", "city": "Paso Robles", "state": "CA" }, "geometry": { "type": "Point", "coordinates": [ -120.5977, 35.63748 ] } },
{ "type": "Feature", "properties": { "lon": -120.783925, "lat": 35.639830, "owner": "Bear Cave Cellars", "name": null, "street": "2740 Hidden Mountain Rd", "city": "Paso Robles", "state": "CA" }, "geometry": { "type": "Point", "coordinates": [ -120.78393, 35.63983 ] } },
{ "type": "Feature", "properties": { "lon": -120.783925, "lat": 35.639830, "owner": "Daou Vineyards", "name": "Daou Vineyards", "street": "2740 Hidden Mountain Rd", "city": "Paso Robles", "state": "CA" }, "geometry": { "type": "Point", "coordinates": [ -120.78393, 35.63983 ] } },
{ "type": "Feature", "properties": { "lon": -120.630374, "lat": 35.644806, "owner": "Vina Robles, Inc.", "name": "Vina Robles", "street": "3700 Mill Rd", "city": "Paso Robles", "state": "CA" }, "geometry": { "type": "Point", "coordinates": [ -120.63037, 35.64481 ] } },
{ "type": "Feature", "properties": { "lon": -120.615198, "lat": 35.621923, "owner": "Clautiere", "name": "Clautiere Vineyard", "street": "1340 Penman Springs Rd", "city": "Paso Robles", "state": "CA" }, "geometry": { "type": "Point", "coordinates": [ -120.6152, 35.62192 ] } },
{ "type": "Feature", "properties": { "lon": -120.733388, "lat": 35.574151, "owner": "Eagle Castle Winery", "name": "Eagle Castle Winery", "street": "3090 Anderson Rd", "city": "Paso Robles", "state": "CA" }, "geometry": { "type": "Point", "coordinates": [ -120.73339, 35.57415 ] } },
{ "type": "Feature", "properties": { "lon": -120.649470, "lat": 35.673897, "owner": "Michael A. Mcclean & Judy A. Mcclean", "name": "Black Dog Vineyard", "street": "6305 Buena Vista Dr", "city": "Paso Robles", "state": "CA" }, "geometry": { "type": "Point", "coordinates": [ -120.64947, 35.6739 ] } },
{ "type": "Feature", "properties": { "lon": -120.634187, "lat": 35.641865, "owner": "Wine 101", "name": "Mitchella Vineyards & Winery", "street": "2525 Mitchell Ranch Way", "city": "Paso Robles", "state": "CA" }, "geometry": { "type": "Point", "coordinates": [ -120.63419, 35.64186 ] } },
{ "type": "Feature", "properties": { "lon": -120.649470, "lat": 35.673897, "owner": "Tudor Wines, Inc.", "name": "Tudor Wines", "street": "6305 Buena Vista Dr", "city": "Paso Robles", "state": "CA" }, "geometry": { "type": "Point", "coordinates": [ -120.64947, 35.6739 ] } },
{ "type": "Feature", "properties": { "lon": -120.649470, "lat": 35.673897, "owner": "Souza Family, Inc.", "name": "Souza Family Vineyard", "street": "6305 Buena Vista Dr", "city": "Paso Robles", "state": "CA" }, "geometry": { "type": "Point", "coordinates": [ -120.64947, 35.6739 ] } },
{ "type": "Feature", "properties": { "lon": -120.730384, "lat": 35.674080, "owner": "Peachy Canyon Winery", "name": "Peachy Canyon Winery", "street": "2025 Nacimiento Lake Dr", "city": "Paso Robles", "state": "CA" }, "geometry": { "type": "Point", "coordinates": [ -120.73038, 35.67408 ] } },
{ "type": "Feature", "properties": { "lon": -120.797696, "lat": 35.614487, "owner": "Rey Wines", "name": "Kinero Cellars", "street": "5995 Peachy Canyon Rd", "city": "Paso Robles", "state": "CA" }, "geometry": { "type": "Point", "coordinates": [ -120.7977, 35.61449 ] } },
{ "type": "Feature", "properties": { "lon": -120.797696, "lat": 35.614487, "owner": "Villa Creek, Inc.", "name": "Villa Creek Cellars", "street": "5995 Peachy Canyon Rd", "city": "Paso Robles", "state": "CA" }, "geometry": { "type": "Point", "coordinates": [ -120.7977, 35.61449 ] } },
{ "type": "Feature", "properties": { "lon": -120.798608, "lat": 35.579680, "owner": "Jack John Investments, Inc.", "name": "Jada Vineyard & Winery", "street": "5620 Vineyard Dr", "city": "Paso Robles", "state": "CA" }, "geometry": { "type": "Point", "coordinates": [ -120.79861, 35.57968 ] } },
{ "type": "Feature", "properties": { "lon": -120.689830, "lat": 35.648206, "owner": "William S. Powell, Jr. And Kimberlee B. Powell", "name": "Powell Mountain Cellars", "street": "3230 Riverside Ave", "city": "Paso Robles", "state": "CA" }, "geometry": { "type": "Point", "coordinates": [ -120.68983, 35.64821 ] } },
{ "type": "Feature", "properties": { "lon": -120.689830, "lat": 35.648206, "owner": "Dennis Van Westerhuyzen And Nicole Cavier", "name": "Almond Hill Vineyard", "street": "3230 Riverside Ave", "city": "Paso Robles", "state": "CA" }, "geometry": { "type": "Point", "coordinates": [ -120.68983, 35.64821 ] } },
{ "type": "Feature", "properties": { "lon": -120.689830, "lat": 35.648206, "owner": "Malbec Holdings, Inc.", "name": "Courtisan Wines", "street": "3230 Riverside Ave", "city": "Paso Robles", "state": "CA" }, "geometry": { "type": "Point", "coordinates": [ -120.68983, 35.64821 ] } },
{ "type": "Feature", "properties": { "lon": -120.739762, "lat": 35.578281, "owner": "Booker Vineyard & Winery", "name": "Booker Vineyard", "street": "2644 Anderson Rd", "city": "Paso Robles", "state": "CA" }, "geometry": { "type": "Point", "coordinates": [ -120.73976, 35.57828 ] } },
{ "type": "Feature", "properties": { "lon": -120.782689, "lat": 35.637047, "owner": "Daou Vineyards", "name": "Daou Vneyards", "street": "2777 Hidden Mountain Rd", "city": "Paso Robles", "state": "CA" }, "geometry": { "type": "Point", "coordinates": [ -120.78269, 35.63705 ] } },
{ "type": "Feature", "properties": { "lon": -120.631747, "lat": 35.663043, "owner": "Norman Vineyards, Inc.", "name": "Norman Vineyards", "street": "3502 Dry Creek Rd", "city": "Paso Robles", "state": "CA" }, "geometry": { "type": "Point", "coordinates": [ -120.63175, 35.66304 ] } },
{ "type": "Feature", "properties": { "lon": -120.651222, "lat": 35.662961, "owner": "The Burbank Ranch In Templeton", "name": "Burbank Ranch In Templeton", "street": "2550 Dry Creek Rd", "city": "Paso Robles", "state": "CA" }, "geometry": { "type": "Point", "coordinates": [ -120.65122, 35.66296 ] } },
{ "type": "Feature", "properties": { "lon": -120.791878, "lat": 35.589241, "owner": "Charles A. Poalillo", "name": "Poalillo Vineyards", "street": "1888 Willow Creek Rd", "city": "Paso Robles", "state": "CA" }, "geometry": { "type": "Point", "coordinates": [ -120.79188, 35.58924 ] } },
{ "type": "Feature", "properties": { "lon": -120.730747, "lat": 35.590545, "owner": "Solene", "name": "Clos Solene", "street": "2815 Live Oak Rd", "city": "Paso Robles", "state": "CA" }, "geometry": { "type": "Point", "coordinates": [ -120.73075, 35.59055 ] } },
{ "type": "Feature", "properties": { "lon": -120.730747, "lat": 35.590545, "owner": "Stephan Vineyards, Inc.", "name": "Stephan Vineyards", "street": "2815 Live Oak Rd", "city": "Paso Robles", "state": "CA" }, "geometry": { "type": "Point", "coordinates": [ -120.73075, 35.59055 ] } },
{ "type": "Feature", "properties": { "lon": -120.596865, "lat": 35.659181, "owner": "Continental Vineyards", "name": "Broken Earth Winery", "street": "5625 E Highway 46", "city": "Paso Robles", "state": "CA" }, "geometry": { "type": "Point", "coordinates": [ -120.59687, 35.65918 ] } },
{ "type": "Feature", "properties": { "lon": -120.854592, "lat": 35.638567, "owner": "Halter Winery", "name": "Halter Winery", "street": "8910 Adelaida Rd", "city": "Paso Robles", "state": "CA" }, "geometry": { "type": "Point", "coordinates": [ -120.85459, 35.63857 ] } },
{ "type": "Feature", "properties": { "lon": -120.734441, "lat": 35.651791, "owner": "Munch & Fox", "name": null, "street": "3333 Vine Hill Ln", "city": "Paso Robles", "state": "CA" }, "geometry": { "type": "Point", "coordinates": [ -120.73444, 35.65179 ] } },
{ "type": "Feature", "properties": { "lon": -120.689830, "lat": 35.648206, "owner": "Wayne K. Lemieux And Karen R. Lemieux", "name": "Domaine Lemieux", "street": "3230 Riverside Ave", "city": "Paso Robles", "state": "CA" }, "geometry": { "type": "Point", "coordinates": [ -120.68983, 35.64821 ] } },
{ "type": "Feature", "properties": { "lon": -120.689830, "lat": 35.648206, "owner": "Pierce Ranch Vineyards", "name": "Pierce Ranch Vineyards", "street": "3230 Riverside Ave", "city": "Paso Robles", "state": "CA" }, "geometry": { "type": "Point", "coordinates": [ -120.68983, 35.64821 ] } },
{ "type": "Feature", "properties": { "lon": -120.689830, "lat": 35.648206, "owner": "Wine Horizons", "name": "Wine Horizons", "street": "3230 Riverside Ave", "city": "Paso Robles", "state": "CA" }, "geometry": { "type": "Point", "coordinates": [ -120.68983, 35.64821 ] } },
{ "type": "Feature", "properties": { "lon": -120.509841, "lat": 35.536676, "owner": "Stanger Vineyard", "name": "Stanger Vineyards", "street": "5225 Hwy 41", "city": "Paso Robles", "state": "CA" }, "geometry": { "type": "Point", "coordinates": [ -120.50984, 35.53668 ] } },
{ "type": "Feature", "properties": { "lon": -120.751521, "lat": 35.680127, "owner": "Mondo Executive Management, Inc.", "name": "Mondo Cellars", "street": "3260 Nacimiento Lake Rd", "city": "Paso Robles", "state": "CA" }, "geometry": { "type": "Point", "coordinates": [ -120.75152, 35.68013 ] } },
{ "type": "Feature", "properties": { "lon": -120.612024, "lat": 35.630228, "owner": "Charles E. Treatch And Rhonda L. Treatch", "name": "Treatch Cellars", "street": "4550 Union Rd", "city": "Paso Robles", "state": "CA" }, "geometry": { "type": "Point", "coordinates": [ -120.61202, 35.63023 ] } },
{ "type": "Feature", "properties": { "lon": -120.843872, "lat": 35.613179, "owner": "Foshay, Laird Gordon & Foshay, Lisa Noah", "name": "Adelaida Springs Ranch", "street": "8355 Vineyard Dr", "city": "Paso Robles", "state": "CA" }, "geometry": { "type": "Point", "coordinates": [ -120.84387, 35.61318 ] } },
{ "type": "Feature", "properties": { "lon": -120.613924, "lat": 35.575369, "owner": "Maloy O'Neill, Inc.", "name": "O'Neill Vineyards", "street": "4560 Creston Rd", "city": "Paso Robles", "state": "CA" }, "geometry": { "type": "Point", "coordinates": [ -120.61392, 35.57537 ] } },
{ "type": "Feature", "properties": { "lon": -120.689830, "lat": 35.648206, "owner": "John P. Anderson", "name": "St. Hilaire Winery", "street": "3230 Riverside Ave", "city": "Paso Robles", "state": "CA" }, "geometry": { "type": "Point", "coordinates": [ -120.68983, 35.64821 ] } },
{ "type": "Feature", "properties": { "lon": -120.689830, "lat": 35.648206, "owner": "Ta-Re-Da Entertainment, Inc.", "name": "Mystic Hills Vineyard", "street": "3230 Riverside Ave", "city": "Paso Robles", "state": "CA" }, "geometry": { "type": "Point", "coordinates": [ -120.68983, 35.64821 ] } },
{ "type": "Feature", "properties": { "lon": -120.755952, "lat": 35.570262, "owner": "Henry Michael Donatoni, Jr.", "name": "Donatoni Winery", "street": "3225 Township Rd", "city": "Paso Robles", "state": "CA" }, "geometry": { "type": "Point", "coordinates": [ -120.75595, 35.57026 ] } },
{ "type": "Feature", "properties": { "lon": -120.724697, "lat": 35.672434, "owner": "Waterman & Waterman Enterprises", "name": "Brochelle Vineyards", "street": "1625 Valley Quail Pl", "city": "Paso Robles", "state": "CA" }, "geometry": { "type": "Point", "coordinates": [ -120.7247, 35.67243 ] } },
{ "type": "Feature", "properties": { "lon": -120.720812, "lat": 35.589109, "owner": "Austin Hope Winery", "name": null, "street": "1585 Live Oak Rd", "city": "Paso Robles", "state": "CA" }, "geometry": { "type": "Point", "coordinates": [ -120.72081, 35.58911 ] } },
{ "type": "Feature", "properties": { "lon": -120.771147, "lat": 35.586248, "owner": "Jeffrey W. Pipes", "name": "Pipestone Vineyards", "street": "2040 Niderer Rd", "city": "Paso Robles", "state": "CA" }, "geometry": { "type": "Point", "coordinates": [ -120.77115, 35.58625 ] } },
{ "type": "Feature", "properties": { "lon": -120.631747, "lat": 35.663043, "owner": "Wcp Cellars", "name": null, "street": "3502 Dry Creek Rd", "city": "Paso Robles", "state": "CA" }, "geometry": { "type": "Point", "coordinates": [ -120.63175, 35.66304 ] } },
{ "type": "Feature", "properties": { "lon": -120.631747, "lat": 35.663043, "owner": "Emerald Hills Vineyard Estates", "name": null, "street": "3502 Dry Creek Rd", "city": "Paso Robles", "state": "CA" }, "geometry": { "type": "Point", "coordinates": [ -120.63175, 35.66304 ] } },
{ "type": "Feature", "properties": { "lon": -120.588416, "lat": 35.637686, "owner": "Steinbeck Vineyards & Winery", "name": "Steinbeck Vineyards & Winery", "street": "5940 Union Rd", "city": "Paso Robles", "state": "CA" }, "geometry": { "type": "Point", "coordinates": [ -120.58842, 35.63769 ] } },
{ "type": "Feature", "properties": { "lon": -120.652401, "lat": 35.614738, "owner": "Happy Appel Investments, Inc.", "name": "Safe Haven Wine Services", "street": "1625 Commerce Way", "city": "Paso Robles", "state": "CA" }, "geometry": { "type": "Point", "coordinates": [ -120.6524, 35.61474 ] } },
{ "type": "Feature", "properties": { "lon": -120.869681, "lat": 35.641630, "owner": "Carros Enterprises", "name": "Kiamie Wine Cellars", "street": "9750 Adelaida Rd", "city": "Paso Robles", "state": "CA" }, "geometry": { "type": "Point", "coordinates": [ -120.86968, 35.64163 ] } },
{ "type": "Feature", "properties": { "lon": -120.651287, "lat": 35.662960, "owner": "Coastal Influence", "name": "Cloak And Dagger Wines", "street": "2540 Dry Creek Rd", "city": "Paso Robles", "state": "CA" }, "geometry": { "type": "Point", "coordinates": [ -120.65129, 35.66296 ] } },
{ "type": "Feature", "properties": { "lon": -120.764476, "lat": 35.626967, "owner": "Law Estate Wines", "name": null, "street": "3885 Peachy Canyon Rd", "city": "Paso Robles", "state": "CA" }, "geometry": { "type": "Point", "coordinates": [ -120.76448, 35.62697 ] } },
{ "type": "Feature", "properties": { "lon": -120.609188, "lat": 35.610405, "owner": "Larry Neil Rasmussen & Elaine Kay Rasmussen", "name": "Rasmussen Family Vineyards", "street": "120 Harvest Ridge Way", "city": "Paso Robles", "state": "CA" }, "geometry": { "type": "Point", "coordinates": [ -120.60919, 35.6104 ] } },
{ "type": "Feature", "properties": { "lon": -120.649470, "lat": 35.673897, "owner": "Barrel 27 Wine Company, Inc.", "name": "Barrel 27 Wine Company", "street": "6305 Buena Vista Dr", "city": "Paso Robles", "state": "CA" }, "geometry": { "type": "Point", "coordinates": [ -120.64947, 35.6739 ] } },
{ "type": "Feature", "properties": { "lon": -120.649470, "lat": 35.673897, "owner": "Laraneta Enterprises, Inc.", "name": "Laraneta Winery", "street": "6305 Buena Vista Dr", "city": "Paso Robles", "state": "CA" }, "geometry": { "type": "Point", "coordinates": [ -120.64947, 35.6739 ] } },
{ "type": "Feature", "properties": { "lon": -120.649470, "lat": 35.673897, "owner": "Paso Robles Wine Services", "name": "Paso Robles Wine Services", "street": "6305 Buena Vista Dr", "city": "Paso Robles", "state": "CA" }, "geometry": { "type": "Point", "coordinates": [ -120.64947, 35.6739 ] } },
{ "type": "Feature", "properties": { "lon": -120.649470, "lat": 35.673897, "owner": "Charles & Renee' Jobbins", "name": "Skyhawk Lane", "street": "6305 Buena Vista Dr", "city": "Paso Robles", "state": "CA" }, "geometry": { "type": "Point", "coordinates": [ -120.64947, 35.6739 ] } },
{ "type": "Feature", "properties": { "lon": -120.733718, "lat": 35.697818, "owner": "Caparone Winery", "name": "Caparone Winery", "street": "2280 San Marcos Rd", "city": "Paso Robles", "state": "CA" }, "geometry": { "type": "Point", "coordinates": [ -120.73372, 35.69782 ] } },
{ "type": "Feature", "properties": { "lon": -120.631747, "lat": 35.663043, "owner": "Orchid Hill Vineyard", "name": "Orchid Hill Vineyard", "street": "3502 Dry Creek Rd", "city": "Paso Robles", "state": "CA" }, "geometry": { "type": "Point", "coordinates": [ -120.63175, 35.66304 ] } },
{ "type": "Feature", "properties": { "lon": -120.642053, "lat": 35.646161, "owner": "Foley Family Wines, Inc", "name": "Eos", "street": "2300 Airport Rd", "city": "Paso Robles", "state": "CA" }, "geometry": { "type": "Point", "coordinates": [ -120.64205, 35.64616 ] } },
{ "type": "Feature", "properties": { "lon": -120.541097, "lat": 35.648771, "owner": "R-Golden Land Corp.", "name": "Rockin' R Winery", "street": "8500 Union Rd", "city": "Paso Robles", "state": "CA" }, "geometry": { "type": "Point", "coordinates": [ -120.5411, 35.64877 ] } },
{ "type": "Feature", "properties": { "lon": -120.755751, "lat": 35.570328, "owner": "A. John Berardo", "name": "A.J.B. Vineyards", "street": "3280 Township Rd", "city": "Paso Robles", "state": "CA" }, "geometry": { "type": "Point", "coordinates": [ -120.75575, 35.57033 ] } },
{ "type": "Feature", "properties": { "lon": -120.619318, "lat": 35.630134, "owner": "Thomas L. And Carol J. Hinkle", "name": "Rio Seco", "street": "4295 Union Rd", "city": "Paso Robles", "state": "CA" }, "geometry": { "type": "Point", "coordinates": [ -120.61932, 35.63013 ] } },
{ "type": "Feature", "properties": { "lon": -120.649470, "lat": 35.673897, "owner": "Thomas Pitchon", "name": "Thomas Alexander Winery", "street": "6305 Buena Vista Dr", "city": "Paso Robles", "state": "CA" }, "geometry": { "type": "Point", "coordinates": [ -120.64947, 35.6739 ] } },
{ "type": "Feature", "properties": { "lon": -120.649470, "lat": 35.673897, "owner": "Seashell Cellars", "name": "Seashell Cellars", "street": "6305 Buena Vista Dr", "city": "Paso Robles", "state": "CA" }, "geometry": { "type": "Point", "coordinates": [ -120.64947, 35.6739 ] } },
{ "type": "Feature", "properties": { "lon": -120.649470, "lat": 35.673897, "owner": "Cinnabar Winery", "name": "Cinnabar Winery", "street": "6305 Buena Vista Dr", "city": "Paso Robles", "state": "CA" }, "geometry": { "type": "Point", "coordinates": [ -120.64947, 35.6739 ] } },
{ "type": "Feature", "properties": { "lon": -120.729918, "lat": 35.675719, "owner": "Vines On The Marycrest", "name": "Vines On The Marycrest", "street": "5050 Mustard Creek Rd", "city": "Paso Robles", "state": "CA" }, "geometry": { "type": "Point", "coordinates": [ -120.72992, 35.67572 ] } },
{ "type": "Feature", "properties": { "lon": -120.751795, "lat": 35.566052, "owner": "Gh Holdings L.P. Castle Oak Vineyards, Inc. Gp", "name": "Shale Oak Winery", "street": "3235 Oakdale Rd", "city": "Paso Robles", "state": "CA" }, "geometry": { "type": "Point", "coordinates": [ -120.75179, 35.56605 ] } },
{ "type": "Feature", "properties": { "lon": -120.717555, "lat": 35.702118, "owner": "Rabbit Ridge Wine Sales, Inc.", "name": "Rabbit Ridge Vineyards", "street": "1172 San Marcos Rd", "city": "Paso Robles", "state": "CA" }, "geometry": { "type": "Point", "coordinates": [ -120.71756, 35.70212 ] } },
{ "type": "Feature", "properties": { "lon": -120.596866, "lat": 35.659534, "owner": "Cipco, Inc.", "name": "Derby Wine Estates", "street": "5620 E Highway 46", "city": "Paso Robles", "state": "CA" }, "geometry": { "type": "Point", "coordinates": [ -120.59687, 35.65953 ] } },
{ "type": "Feature", "properties": { "lon": -120.655644, "lat": 35.642439, "owner": "Hug Cellars", "name": "Hug Cellars", "street": "2323 Tuley Rd", "city": "Paso Robles", "state": "CA" }, "geometry": { "type": "Point", "coordinates": [ -120.65564, 35.64244 ] } },
{ "type": "Feature", "properties": { "lon": -120.871018, "lat": 35.659104, "owner": "Taste Of Adelaida", "name": "Dubost", "street": "9988 Chimney Rock Rd", "city": "Paso Robles", "state": "CA" }, "geometry": { "type": "Point", "coordinates": [ -120.87102, 35.6591 ] } },
{ "type": "Feature", "properties": { "lon": -120.757751, "lat": 35.656761, "owner": "Carina Cellars", "name": "Carina Cellars", "street": "3525 Adelaida Rd", "city": "Paso Robles", "state": "CA" }, "geometry": { "type": "Point", "coordinates": [ -120.75775, 35.65676 ] } },
{ "type": "Feature", "properties": { "lon": -120.757751, "lat": 35.656761, "owner": "Cipco, Inc.", "name": "Derby Wine Estates", "street": "3525 Adelaida Rd", "city": "Paso Robles", "state": "CA" }, "geometry": { "type": "Point", "coordinates": [ -120.75775, 35.65676 ] } },
{ "type": "Feature", "properties": { "lon": -120.837314, "lat": 35.601544, "owner": "Pv Wine, Inc.", "name": "Pv Wine", "street": "7970 Vineyard Dr", "city": "Paso Robles", "state": "CA" }, "geometry": { "type": "Point", "coordinates": [ -120.83731, 35.60154 ] } },
{ "type": "Feature", "properties": { "lon": -120.764007, "lat": 35.627340, "owner": "Robert Fernand Nadeau", "name": "Nadeau Family Vintners", "street": "3860 Peachy Canyon Rd", "city": "Paso Robles", "state": "CA" }, "geometry": { "type": "Point", "coordinates": [ -120.76401, 35.62734 ] } },
{ "type": "Feature", "properties": { "lon": -120.658319, "lat": 35.673933, "owner": "Barreto Cellars", "name": "Barreto Cellars", "street": "5115 Buena Vista Dr", "city": "Paso Robles", "state": "CA" }, "geometry": { "type": "Point", "coordinates": [ -120.65832, 35.67393 ] } },
{ "type": "Feature", "properties": { "lon": -120.743196, "lat": 35.651016, "owner": "Las Colinas Winery", "name": null, "street": "2725 Adelaida Rd", "city": "Paso Robles", "state": "CA" }, "geometry": { "type": "Point", "coordinates": [ -120.7432, 35.65102 ] } },
{ "type": "Feature", "properties": { "lon": -120.743196, "lat": 35.651016, "owner": "Joseph Alexander Villicana Ii And Monica Villicana", "name": "Villicana Wine Company", "street": "2725 Adelaida Rd", "city": "Paso Robles", "state": "CA" }, "geometry": { "type": "Point", "coordinates": [ -120.7432, 35.65102 ] } },
{ "type": "Feature", "properties": { "lon": -120.655644, "lat": 35.642439, "owner": "Waterman & Waterman Enterprises", "name": "Brochelle Vineyards", "street": "2323 Tuley Ct", "city": "Paso Robles", "state": "CA" }, "geometry": { "type": "Point", "coordinates": [ -120.65564, 35.64244 ] } },
{ "type": "Feature", "properties": { "lon": -120.843872, "lat": 35.613179, "owner": "Westside Winery", "name": "Thacher Winery", "street": "8355 Vineyard Dr", "city": "Paso Robles", "state": "CA" }, "geometry": { "type": "Point", "coordinates": [ -120.84387, 35.61318 ] } },
{ "type": "Feature", "properties": { "lon": -120.795969, "lat": 35.577051, "owner": "Riley Wine Corporation", "name": "Blackburn Wine Company", "street": "5424 Vineyard Dr", "city": "Paso Robles", "state": "CA" }, "geometry": { "type": "Point", "coordinates": [ -120.79597, 35.57705 ] } },
{ "type": "Feature", "properties": { "lon": -120.649470, "lat": 35.673897, "owner": "Alisa Wine Group", "name": "James David Cellars", "street": "6305 Buena Vista Dr", "city": "Paso Robles", "state": "CA" }, "geometry": { "type": "Point", "coordinates": [ -120.64947, 35.6739 ] } },
{ "type": "Feature", "properties": { "lon": -120.734905, "lat": 35.575146, "owner": "Seven Angels Cellars", "name": "Seven Angels Cellars", "street": "2985 Anderson Rd", "city": "Paso Robles", "state": "CA" }, "geometry": { "type": "Point", "coordinates": [ -120.7349, 35.57515 ] } },
{ "type": "Feature", "properties": { "lon": -120.737048, "lat": 35.571423, "owner": "Rbz Vineyards", "name": "Windemere Winery", "street": "2324 Green Valley Rd", "city": "Paso Robles", "state": "CA" }, "geometry": { "type": "Point", "coordinates": [ -120.73705, 35.57142 ] } },
{ "type": "Feature", "properties": { "lon": -120.651222, "lat": 35.662961, "owner": "Kenneth Duane Wolgamott & Brenda Anne Wolgamott", "name": "Marin's Vineyard", "street": "2550 Dry Creek Rd", "city": "Paso Robles", "state": "CA" }, "geometry": { "type": "Point", "coordinates": [ -120.65122, 35.66296 ] } },
{ "type": "Feature", "properties": { "lon": -120.629869, "lat": 35.136425, "owner": "Pismo Beach Winery", "name": "Pismo Beach Winery", "street": "271 Five Cities Dr", "city": "Pismo Beach", "state": "CA" }, "geometry": { "type": "Point", "coordinates": [ -120.62987, 35.13643 ] } },
{ "type": "Feature", "properties": { "lon": -120.608629, "lat": 35.241283, "owner": "Paragon Vineyard Co., Inc.", "name": "Orcutt Road Cellars", "street": "4915 Orcutt Rd", "city": "San Luis Obispo", "state": "CA" }, "geometry": { "type": "Point", "coordinates": [ -120.60863, 35.24128 ] } },
{ "type": "Feature", "properties": { "lon": -120.570841, "lat": 35.200092, "owner": "Chamisal Vineyards", "name": "Domaine Alfred", "street": "7525 Orcutt Rd", "city": "San Luis Obispo", "state": "CA" }, "geometry": { "type": "Point", "coordinates": [ -120.57084, 35.20009 ] } },
{ "type": "Feature", "properties": { "lon": -120.624200, "lat": 35.302860, "owner": "Valor Wine Co.", "name": "Valor Wine Co.", "street": "555-A El Camino Real", "city": "San Luis Obispo", "state": "CA" }, "geometry": { "type": "Point", "coordinates": [ -120.6242, 35.30286 ] } },
{ "type": "Feature", "properties": { "lon": -120.685872, "lat": 35.239027, "owner": "Edward Frederick Evenson", "name": "Refugio Vineyard Company", "street": "1850 Calle Joaquin", "city": "San Luis Obispo", "state": "CA" }, "geometry": { "type": "Point", "coordinates": [ -120.68587, 35.23903 ] } },
{ "type": "Feature", "properties": { "lon": -120.685872, "lat": 35.239027, "owner": "Christopher Joseph Ferrara And Adrienne Lindsay Ferrara", "name": "Biagio Wine Co.", "street": "1850 Calle Joaquin", "city": "San Luis Obispo", "state": "CA" }, "geometry": { "type": "Point", "coordinates": [ -120.68587, 35.23903 ] } },
{ "type": "Feature", "properties": { "lon": -120.629759, "lat": 35.230959, "owner": "Piedra Creek Winery", "name": "Piedra Creek Winery", "street": "4910 Edna Rd", "city": "San Luis Obispo", "state": "CA" }, "geometry": { "type": "Point", "coordinates": [ -120.62976, 35.23096 ] } },
{ "type": "Feature", "properties": { "lon": -120.608629, "lat": 35.241283, "owner": "Castle Creek Properties, Inc.", "name": "Malibu Hills Vineyards", "street": "4915 Orcutt Rd", "city": "San Luis Obispo", "state": "CA" }, "geometry": { "type": "Point", "coordinates": [ -120.60863, 35.24128 ] } },
{ "type": "Feature", "properties": { "lon": -120.624200, "lat": 35.302860, "owner": "Wild Wood Vineyard & Winery, Inc.", "name": "Wild Wood Vineyard & Winery", "street": "555 El Camino Real", "city": "San Luis Obispo", "state": "CA" }, "geometry": { "type": "Point", "coordinates": [ -120.6242, 35.30286 ] } },
{ "type": "Feature", "properties": { "lon": -120.601671, "lat": 35.219377, "owner": "William Scollay Greenough & Nancy Patterson Greenough", "name": "Saucelito Canyon Vineyard", "street": "3080 Biddle Ranch Rd", "city": "San Luis Obispo", "state": "CA" }, "geometry": { "type": "Point", "coordinates": [ -120.60167, 35.21938 ] } },
{ "type": "Feature", "properties": { "lon": -120.685872, "lat": 35.239027, "owner": "Filipponi Ranch", "name": "Filipponi Ranch Cellars", "street": "1850 Calle Joaquin", "city": "San Luis Obispo", "state": "CA" }, "geometry": { "type": "Point", "coordinates": [ -120.68587, 35.23903 ] } },
{ "type": "Feature", "properties": { "lon": -120.629759, "lat": 35.230959, "owner": "Baker And Brain Wines", "name": "Baker And Brain", "street": "4910 Edna Rd", "city": "San Luis Obispo", "state": "CA" }, "geometry": { "type": "Point", "coordinates": [ -120.62976, 35.23096 ] } },
{ "type": "Feature", "properties": { "lon": -120.669374, "lat": 35.261748, "owner": "Valley View Vintners, Inc.", "name": "Valley View Vintners", "street": "2885 S Higuera St", "city": "San Luis Obispo", "state": "CA" }, "geometry": { "type": "Point", "coordinates": [ -120.66937, 35.26175 ] } },
{ "type": "Feature", "properties": { "lon": -120.629759, "lat": 35.230959, "owner": "Morro Bay, Inc.", "name": null, "street": "4910 Edna Rd", "city": "San Luis Obispo", "state": "CA" }, "geometry": { "type": "Point", "coordinates": [ -120.62976, 35.23096 ] } },
{ "type": "Feature", "properties": { "lon": -120.669374, "lat": 35.261748, "owner": "Beck Ag Operations, Inc.", "name": "Beck Vineyards And Winery", "street": "2885 S Higuera St", "city": "San Luis Obispo", "state": "CA" }, "geometry": { "type": "Point", "coordinates": [ -120.66937, 35.26175 ] } },
{ "type": "Feature", "properties": { "lon": -120.671265, "lat": 35.244085, "owner": "Stephen Dooley Wine Co., Inc.", "name": "Stephen R. Dooley", "street": "178 Suburban Rd", "city": "San Luis Obispo", "state": "CA" }, "geometry": { "type": "Point", "coordinates": [ -120.67127, 35.24408 ] } },
{ "type": "Feature", "properties": { "lon": -120.670279, "lat": 35.243977, "owner": "Refugio Ranch Vineyards", "name": "Refugio Ranch Vineyards", "street": "203 Suburban Rd", "city": "San Luis Obispo", "state": "CA" }, "geometry": { "type": "Point", "coordinates": [ -120.67028, 35.24398 ] } },
{ "type": "Feature", "properties": { "lon": -120.596415, "lat": 35.219007, "owner": "Wolff Vineyard", "name": "Wolff Vineyards", "street": "6238 Orcutt Rd", "city": "San Luis Obispo", "state": "CA" }, "geometry": { "type": "Point", "coordinates": [ -120.59642, 35.21901 ] } },
{ "type": "Feature", "properties": { "lon": -120.669374, "lat": 35.261748, "owner": "Terrizzi Vino", "name": "Giornata", "street": "2885 S Higuera St", "city": "San Luis Obispo", "state": "CA" }, "geometry": { "type": "Point", "coordinates": [ -120.66937, 35.26175 ] } },
{ "type": "Feature", "properties": { "lon": -120.607961, "lat": 35.217602, "owner": "E. & J. Gallo Winery", "name": "Edna Valley Vineyard", "street": "2585 Biddle Ranch Rd", "city": "San Luis Obispo", "state": "CA" }, "geometry": { "type": "Point", "coordinates": [ -120.60796, 35.2176 ] } },
{ "type": "Feature", "properties": { "lon": -120.669374, "lat": 35.261748, "owner": "Slo Wine Storage", "name": "The Wine Studio", "street": "2885 S Higuera St", "city": "San Luis Obispo", "state": "CA" }, "geometry": { "type": "Point", "coordinates": [ -120.66937, 35.26175 ] } },
{ "type": "Feature", "properties": { "lon": -120.625465, "lat": 35.224166, "owner": "Stephen P. Autry", "name": "Autry Cellars", "street": "5450 Edna Rd", "city": "San Luis Obispo", "state": "CA" }, "geometry": { "type": "Point", "coordinates": [ -120.62546, 35.22417 ] } },
{ "type": "Feature", "properties": { "lon": -120.669374, "lat": 35.261748, "owner": "Henson Wines", "name": null, "street": "2885 S Higuera St", "city": "San Luis Obispo", "state": "CA" }, "geometry": { "type": "Point", "coordinates": [ -120.66937, 35.26175 ] } },
{ "type": "Feature", "properties": { "lon": -120.669374, "lat": 35.261748, "owner": "Kevin Christopher Law", "name": "Luminesce", "street": "2885 S Higuera St", "city": "San Luis Obispo", "state": "CA" }, "geometry": { "type": "Point", "coordinates": [ -120.66937, 35.26175 ] } },
{ "type": "Feature", "properties": { "lon": -120.669374, "lat": 35.261748, "owner": "Maurice & Susan Wedell", "name": "Wedell Cellars", "street": "2885 S Higuera St", "city": "San Luis Obispo", "state": "CA" }, "geometry": { "type": "Point", "coordinates": [ -120.66937, 35.26175 ] } },
{ "type": "Feature", "properties": { "lon": -120.671265, "lat": 35.244085, "owner": "Peloton Cellars, Inc.", "name": "Peloton Cellars", "street": "178 Suburban Rd", "city": "San Luis Obispo", "state": "CA" }, "geometry": { "type": "Point", "coordinates": [ -120.67127, 35.24408 ] } },
{ "type": "Feature", "properties": { "lon": -120.669374, "lat": 35.261748, "owner": "Slo Bottling Services Inc", "name": "Westgate Cellars", "street": "2885 S Higuera St", "city": "San Luis Obispo", "state": "CA" }, "geometry": { "type": "Point", "coordinates": [ -120.66937, 35.26175 ] } },
{ "type": "Feature", "properties": { "lon": -120.669374, "lat": 35.261748, "owner": "Semler Malibu Estate Vineyards Inc", "name": "Malibu Family Wines", "street": "2885 S Higuera St", "city": "San Luis Obispo", "state": "CA" }, "geometry": { "type": "Point", "coordinates": [ -120.66937, 35.26175 ] } },
{ "type": "Feature", "properties": { "lon": -120.629759, "lat": 35.230959, "owner": "Middleton Family Wines", "name": "Middleton Family Wines", "street": "4910 Edna Rd", "city": "San Luis Obispo", "state": "CA" }, "geometry": { "type": "Point", "coordinates": [ -120.62976, 35.23096 ] } },
{ "type": "Feature", "properties": { "lon": -120.629759, "lat": 35.230959, "owner": "Phase 2 Cellars", "name": "Tolosa Winery", "street": "4910 Edna Rd", "city": "San Luis Obispo", "state": "CA" }, "geometry": { "type": "Point", "coordinates": [ -120.62976, 35.23096 ] } },
{ "type": "Feature", "properties": { "lon": -120.718519, "lat": 35.207660, "owner": "Kelsey See Canyon Vineyards, Inc.", "name": "Kelsey See Canyon Vineyards", "street": "1945 See Canyon Rd", "city": "San Luis Obispo", "state": "CA" }, "geometry": { "type": "Point", "coordinates": [ -120.71852, 35.20766 ] } },
{ "type": "Feature", "properties": { "lon": -120.685868, "lat": 35.239698, "owner": "Harrow Bros.", "name": "Harrow Cellars", "street": "1800 Calle Joaquin", "city": "San Luis Obispo", "state": "CA" }, "geometry": { "type": "Point", "coordinates": [ -120.68587, 35.2397 ] } },
{ "type": "Feature", "properties": { "lon": -120.604836, "lat": 35.198631, "owner": "Claiborne & Churchill, Inc.", "name": null, "street": "2649 Carpenter Canyon Rd", "city": "San Luis Obispo", "state": "CA" }, "geometry": { "type": "Point", "coordinates": [ -120.60484, 35.19863 ] } },
{ "type": "Feature", "properties": { "lon": -120.624363, "lat": 35.717855, "owner": "Jason R. Clayton Bushong & Lisa A. Bushong", "name": "Bushong Vintage Company", "street": "6994 Estrella Rd", "city": "San Miguel", "state": "CA" }, "geometry": { "type": "Point", "coordinates": [ -120.62436, 35.71785 ] } },
{ "type": "Feature", "properties": { "lon": -120.697478, "lat": 35.765214, "owner": "The Bear And The Bull", "name": "The Bear And The Bull", "street": "2425 Mission St", "city": "San Miguel", "state": "CA" }, "geometry": { "type": "Point", "coordinates": [ -120.69748, 35.76521 ] } },
{ "type": "Feature", "properties": { "lon": -120.697478, "lat": 35.765214, "owner": "La Forza Winery", "name": "La Filice Winery", "street": "2425 Mission St", "city": "San Miguel", "state": "CA" }, "geometry": { "type": "Point", "coordinates": [ -120.69748, 35.76521 ] } },
{ "type": "Feature", "properties": { "lon": -120.623692, "lat": 35.747101, "owner": "Villa San Juliette", "name": "Villa San Juliette", "street": "6385 Cross Canyons Rd", "city": "San Miguel", "state": "CA" }, "geometry": { "type": "Point", "coordinates": [ -120.62369, 35.7471 ] } },
{ "type": "Feature", "properties": { "lon": -120.678340, "lat": 35.757841, "owner": "Seven Quails Vineyards, Inc.", "name": "Seven Quails Vineyards", "street": "8585 Cross Canyons Rd", "city": "San Miguel", "state": "CA" }, "geometry": { "type": "Point", "coordinates": [ -120.67834, 35.75784 ] } },
{ "type": "Feature", "properties": { "lon": -120.604770, "lat": 35.727957, "owner": "Judd Family Vineyards, L.P., Rcv Enterprises, Gp", "name": "James Judd Vineyards", "street": "2850 Ranchita Canyon Rd", "city": "San Miguel", "state": "CA" }, "geometry": { "type": "Point", "coordinates": [ -120.60477, 35.72796 ] } },
{ "type": "Feature", "properties": { "lon": -120.604770, "lat": 35.727957, "owner": "James Judd & Son Vineyards, L.P.; A Cellar Full Of Noise, Gp", "name": "James Judd & Son Vineyards", "street": "2850 Ranchita Canyon Rd", "city": "San Miguel", "state": "CA" }, "geometry": { "type": "Point", "coordinates": [ -120.60477, 35.72796 ] } },
{ "type": "Feature", "properties": { "lon": -120.580443, "lat": 35.716672, "owner": "David Nagengast", "name": "Nagengast Estate Vineyard", "street": "6404 Independence Ranch Pl", "city": "San Miguel", "state": "CA" }, "geometry": { "type": "Point", "coordinates": [ -120.58044, 35.71667 ] } },
{ "type": "Feature", "properties": { "lon": -120.697478, "lat": 35.765214, "owner": "Vina Robles, Inc", "name": "Vina Robles", "street": "2425 Mission St", "city": "San Miguel", "state": "CA" }, "geometry": { "type": "Point", "coordinates": [ -120.69748, 35.76521 ] } },
{ "type": "Feature", "properties": { "lon": -120.622796, "lat": 35.717701, "owner": "Gh Holdings L.P.", "name": "Castle Oak Vineyards", "street": "6986 Estrella Rd", "city": "San Miguel", "state": "CA" }, "geometry": { "type": "Point", "coordinates": [ -120.6228, 35.7177 ] } },
{ "type": "Feature", "properties": { "lon": -120.624363, "lat": 35.717855, "owner": "Graveyard Vineyards", "name": "Graveyard Vineyards", "street": "6994 Estrella Rd", "city": "San Miguel", "state": "CA" }, "geometry": { "type": "Point", "coordinates": [ -120.62436, 35.71785 ] } },
{ "type": "Feature", "properties": { "lon": -120.697478, "lat": 35.765214, "owner": "E. & J. Gallo Winery", "name": "Courtside Cellars", "street": "2425 Mission St", "city": "San Miguel", "state": "CA" }, "geometry": { "type": "Point", "coordinates": [ -120.69748, 35.76521 ] } },
{ "type": "Feature", "properties": { "lon": -120.597795, "lat": 35.732447, "owner": "Tackitt Corp", "name": "Tackitt Family Vineyards", "street": "6640 Von Dollen Rd", "city": "San Miguel", "state": "CA" }, "geometry": { "type": "Point", "coordinates": [ -120.59779, 35.73245 ] } },
{ "type": "Feature", "properties": { "lon": -120.630857, "lat": 35.723450, "owner": "K-4 Development", "name": "Silver Horse Winery", "street": "2995 Pleasant Rd", "city": "San Miguel", "state": "CA" }, "geometry": { "type": "Point", "coordinates": [ -120.63086, 35.72345 ] } },
{ "type": "Feature", "properties": { "lon": -120.630857, "lat": 35.723450, "owner": "Craig R. Reed, Heather Rammel And Alfred R. Reed", "name": "Reed Cellars", "street": "2995 Pleasant Rd", "city": "San Miguel", "state": "CA" }, "geometry": { "type": "Point", "coordinates": [ -120.63086, 35.72345 ] } },
{ "type": "Feature", "properties": { "lon": -120.569648, "lat": 35.729362, "owner": "Pozzuoli Winery, Inc.", "name": "Pozzuoli Winery", "street": "6225 California Poppy Ln", "city": "San Miguel", "state": "CA" }, "geometry": { "type": "Point", "coordinates": [ -120.56965, 35.72936 ] } },
{ "type": "Feature", "properties": { "lon": -120.678340, "lat": 35.757841, "owner": "Jettlynn Winery", "name": "Jettlynn Winery", "street": "8585 Cross Canyons Rd", "city": "San Miguel", "state": "CA" }, "geometry": { "type": "Point", "coordinates": [ -120.67834, 35.75784 ] } },
{ "type": "Feature", "properties": { "lon": -120.678340, "lat": 35.757841, "owner": "San Miguel Wineworks", "name": "Locatelli Winery", "street": "8585 Cross Canyons Rd", "city": "San Miguel", "state": "CA" }, "geometry": { "type": "Point", "coordinates": [ -120.67834, 35.75784 ] } },
{ "type": "Feature", "properties": { "lon": -120.678340, "lat": 35.757841, "owner": "Jettlynn Winery", "name": "Jettlynn Winery", "street": "8585 Cross Canyons Rd", "city": "San Miguel", "state": "CA" }, "geometry": { "type": "Point", "coordinates": [ -120.67834, 35.75784 ] } },
{ "type": "Feature", "properties": { "lon": -120.584568, "lat": 35.733311, "owner": "Castoro Cellars", "name": null, "street": "6465 Von Dollen Rd", "city": "San Miguel", "state": "CA" }, "geometry": { "type": "Point", "coordinates": [ -120.58457, 35.73331 ] } },
{ "type": "Feature", "properties": { "lon": -120.584568, "lat": 35.733311, "owner": "Luneau U.S.A., Inc.", "name": "Pacific Edge Wines", "street": "6465 Von Dollen Rd", "city": "San Miguel", "state": "CA" }, "geometry": { "type": "Point", "coordinates": [ -120.58457, 35.73331 ] } },
{ "type": "Feature", "properties": { "lon": -120.613417, "lat": 35.747093, "owner": "William R. Hinrichs Jr. & Teresa M. Hinrichs", "name": "Ranchita Canyon Vineyard", "street": "3439 Ranchita Canyon Rd", "city": "San Miguel", "state": "CA" }, "geometry": { "type": "Point", "coordinates": [ -120.61342, 35.74709 ] } },
{ "type": "Feature", "properties": { "lon": -120.563633, "lat": 35.718829, "owner": "Richard Wallace Murray And Joyce Ann Murray", "name": "Bon Niche Cellars", "street": "2627 Golden Eagle Way", "city": "San Miguel", "state": "CA" }, "geometry": { "type": "Point", "coordinates": [ -120.56363, 35.71883 ] } },
{ "type": "Feature", "properties": { "lon": -120.682693, "lat": 35.750495, "owner": "Pretty-Smith Enterprises", "name": "Pretty-Smith Vineyards & Winery", "street": "13350 River Rd", "city": "San Miguel", "state": "CA" }, "geometry": { "type": "Point", "coordinates": [ -120.68269, 35.75049 ] } },
{ "type": "Feature", "properties": { "lon": -120.489908, "lat": 35.393559, "owner": "Michael P. Knodl", "name": null, "street": "4580 Park Hill Rd", "city": "Santa Margarita", "state": "CA" }, "geometry": { "type": "Point", "coordinates": [ -120.48991, 35.39356 ] } },
{ "type": "Feature", "properties": { "lon": -120.758271, "lat": 35.555220, "owner": "Zin Alley", "name": "Zin Alley", "street": "3730 W Highway 46", "city": "Templeton", "state": "CA" }, "geometry": { "type": "Point", "coordinates": [ -120.75827, 35.55522 ] } },
{ "type": "Feature", "properties": { "lon": -120.744578, "lat": 35.562478, "owner": "Pasoport Wine Company, Inc.", "name": null, "street": "95 Booker Rd", "city": "Templeton", "state": "CA" }, "geometry": { "type": "Point", "coordinates": [ -120.74458, 35.56248 ] } },
{ "type": "Feature", "properties": { "lon": -120.744578, "lat": 35.562478, "owner": "Per Cazo Cellars", "name": "Per Cazo Cellars", "street": "95 Booker Rd", "city": "Templeton", "state": "CA" }, "geometry": { "type": "Point", "coordinates": [ -120.74458, 35.56248 ] } },
{ "type": "Feature", "properties": { "lon": -120.672035, "lat": 35.531504, "owner": "Constellation Brands U.S. Operations, Inc.", "name": "Wild Horse Winery", "street": "1437 Wild Horse Winery Ct", "city": "Templeton", "state": "CA" }, "geometry": { "type": "Point", "coordinates": [ -120.67204, 35.5315 ] } },
{ "type": "Feature", "properties": { "lon": -120.646835, "lat": 35.562986, "owner": "Victor & Leslie Roberts", "name": "Kelevi Cellars", "street": "2850 El Pomar Dr", "city": "Templeton", "state": "CA" }, "geometry": { "type": "Point", "coordinates": [ -120.64683, 35.56299 ] } },
{ "type": "Feature", "properties": { "lon": -120.757821, "lat": 35.555380, "owner": "Aron Hill Vineyards, Inc.", "name": "Aron Hill Vineyards", "street": "3745 W Highway 46", "city": "Templeton", "state": "CA" }, "geometry": { "type": "Point", "coordinates": [ -120.75782, 35.55538 ] } },
{ "type": "Feature", "properties": { "lon": -120.679136, "lat": 35.527619, "owner": "Bella Luna Winery, Inc.", "name": "Bella Luna Winery", "street": "1850 Templeton Rd", "city": "Templeton", "state": "CA" }, "geometry": { "type": "Point", "coordinates": [ -120.67914, 35.52762 ] } },
{ "type": "Feature", "properties": { "lon": -120.641032, "lat": 35.554706, "owner": "Ambyth Estate", "name": null, "street": "510 Sequoia Ln", "city": "Templeton", "state": "CA" }, "geometry": { "type": "Point", "coordinates": [ -120.64103, 35.55471 ] } },
{ "type": "Feature", "properties": { "lon": -120.789603, "lat": 35.552683, "owner": "Jack Creek Cellars, Inc.", "name": "Jack Creek Cellars", "street": "5265 Jack Creek Rd", "city": "Templeton", "state": "CA" }, "geometry": { "type": "Point", "coordinates": [ -120.7896, 35.55268 ] } },
{ "type": "Feature", "properties": { "lon": -120.682169, "lat": 35.556819, "owner": "Matt And Stefanie Mikulics", "name": null, "street": "995 El Pomar Dr", "city": "Templeton", "state": "CA" }, "geometry": { "type": "Point", "coordinates": [ -120.68217, 35.55682 ] } },
{ "type": "Feature", "properties": { "lon": -120.610640, "lat": 35.550971, "owner": "Pomar Junction Cellars", "name": "Pomar Junction Vineyard", "street": "5036 S El Pomar Rd", "city": "Templeton", "state": "CA" }, "geometry": { "type": "Point", "coordinates": [ -120.61064, 35.55097 ] } },
{ "type": "Feature", "properties": { "lon": -120.610217, "lat": 35.541363, "owner": "Hidden Oak Winery, Inc.", "name": "Hidden Oak Winery", "street": "4671 S El Pomar", "city": "Templeton", "state": "CA" }, "geometry": { "type": "Point", "coordinates": [ -120.61022, 35.54136 ] } },
{ "type": "Feature", "properties": { "lon": -120.587598, "lat": 35.552160, "owner": "Donald R. Wasserman", "name": "Donald Wasserman Vineyards And Winery", "street": "6010 El Pomar Dr", "city": "Templeton", "state": "CA" }, "geometry": { "type": "Point", "coordinates": [ -120.5876, 35.55216 ] } },
{ "type": "Feature", "properties": { "lon": -120.749077, "lat": 35.555935, "owner": "Kenneth & Susan Jevec \/ Renald & Catherine Anelle", "name": "Bellarosa Vineyards", "street": "250 Winery Rd", "city": "Templeton", "state": "CA" }, "geometry": { "type": "Point", "coordinates": [ -120.74908, 35.55594 ] } },
{ "type": "Feature", "properties": { "lon": -120.734393, "lat": 35.556633, "owner": "Ramberg Vineyards", "name": "Venteux Vineyards", "street": "1795 Las Tablas Rd", "city": "Templeton", "state": "CA" }, "geometry": { "type": "Point", "coordinates": [ -120.73439, 35.55663 ] } },
{ "type": "Feature", "properties": { "lon": -120.758603, "lat": 35.555001, "owner": "Q4X, Inc.", "name": "Cypher Winery", "street": "3750 W Hwy 46", "city": "Templeton", "state": "CA" }, "geometry": { "type": "Point", "coordinates": [ -120.7586, 35.555 ] } },
{ "type": "Feature", "properties": { "lon": -120.605661, "lat": 35.552997, "owner": "Sarzotti Vineyard And Winery", "name": null, "street": "180 Bella Ranch Rd", "city": "Templeton", "state": "CA" }, "geometry": { "type": "Point", "coordinates": [ -120.60566, 35.553 ] } },
{ "type": "Feature", "properties": { "lon": -120.701234, "lat": 35.556368, "owner": "Treasury Wine Estates Americas Company", "name": null, "street": "45 N. Main St", "city": "Templeton", "state": "CA" }, "geometry": { "type": "Point", "coordinates": [ -120.70123, 35.55637 ] } },
{ "type": "Feature", "properties": { "lon": -120.701234, "lat": 35.556368, "owner": "Opolo Wines Lp, Opolo Managememt Gp", "name": null, "street": "45 N Main St", "city": "Templeton", "state": "CA" }, "geometry": { "type": "Point", "coordinates": [ -120.70123, 35.55637 ] } },
{ "type": "Feature", "properties": { "lon": -120.749077, "lat": 35.555935, "owner": "Jankris Vineyards, Lp; Veris Management Co.,Gp", "name": "Jankris Winery", "street": "250 Winery Rd", "city": "Templeton", "state": "CA" }, "geometry": { "type": "Point", "coordinates": [ -120.74908, 35.55594 ] } },
{ "type": "Feature", "properties": { "lon": -120.749077, "lat": 35.555935, "owner": "Rotta Winery, Inc.", "name": "Rotta Winery", "street": "250 Winery Rd", "city": "Templeton", "state": "CA" }, "geometry": { "type": "Point", "coordinates": [ -120.74908, 35.55594 ] } },
{ "type": "Feature", "properties": { "lon": -120.720058, "lat": 35.576710, "owner": "Veris Management Co", "name": "Jankris Winery", "street": "1266 N Bethel Rd", "city": "Templeton", "state": "CA" }, "geometry": { "type": "Point", "coordinates": [ -120.72006, 35.57671 ] } },
{ "type": "Feature", "properties": { "lon": -120.752032, "lat": 35.553583, "owner": "Turley Wine Cellars, Inc.", "name": "Pesenti Winery", "street": "2900 Vineyard Dr", "city": "Templeton", "state": "CA" }, "geometry": { "type": "Point", "coordinates": [ -120.75203, 35.55358 ] } },
{ "type": "Feature", "properties": { "lon": -120.748736, "lat": 35.546149, "owner": "Donati Family Vineyard, Inc.", "name": null, "street": "2720 Oak View Rd", "city": "Templeton", "state": "CA" }, "geometry": { "type": "Point", "coordinates": [ -120.74874, 35.54615 ] } },
{ "type": "Feature", "properties": { "lon": -120.744578, "lat": 35.562478, "owner": "Guyomar Wine Cellars, Inc", "name": "Guyomar Wine Cellars", "street": "95 Booker Rd", "city": "Templeton", "state": "CA" }, "geometry": { "type": "Point", "coordinates": [ -120.74458, 35.56248 ] } },
{ "type": "Feature", "properties": { "lon": -120.746541, "lat": 35.527072, "owner": "Clare Ranch", "name": "Clare Ranch Vineyard & Winery", "street": "2225 Raymond Ave", "city": "Templeton", "state": "CA" }, "geometry": { "type": "Point", "coordinates": [ -120.74654, 35.52707 ] } },
{ "type": "Feature", "properties": { "lon": -120.746541, "lat": 35.527072, "owner": "Scott Aaron Tobin", "name": "Scott Aaron", "street": "2225 Raymond Ave", "city": "Templeton", "state": "CA" }, "geometry": { "type": "Point", "coordinates": [ -120.74654, 35.52707 ] } },
{ "type": "Feature", "properties": { "lon": -120.719389, "lat": 35.579731, "owner": "Peachy Canyon Winery", "name": null, "street": "1480 N Bethel Rd", "city": "Templeton", "state": "CA" }, "geometry": { "type": "Point", "coordinates": [ -120.71939, 35.57973 ] } },
{ "type": "Feature", "properties": { "lon": -120.829360, "lat": 35.541425, "owner": "Stephen L. Goldman & Lori C. Stone", "name": "Stephen's Cellars", "street": "7575 York Mountain Rd", "city": "Templeton", "state": "CA" }, "geometry": { "type": "Point", "coordinates": [ -120.82936, 35.54142 ] } },
{ "type": "Feature", "properties": { "lon": -120.746541, "lat": 35.527072, "owner": "Thomas P. Morgan Jr.", "name": "Casa De Caballos Vineyards", "street": "2225 Raymond Ave", "city": "Templeton", "state": "CA" }, "geometry": { "type": "Point", "coordinates": [ -120.74654, 35.52707 ] } },
{ "type": "Feature", "properties": { "lon": -120.597004, "lat": 35.551206, "owner": "Bruce Edwin Hansen", "name": "Hansen Vineyard", "street": "5575 El Pomar Dr", "city": "Templeton", "state": "CA" }, "geometry": { "type": "Point", "coordinates": [ -120.597, 35.55121 ] } },
{ "type": "Feature", "properties": { "lon": -120.841212, "lat": 35.536274, "owner": "Carolyn A. Somogyi", "name": "Rocky Creek Winery", "street": "8395 W Highway 46", "city": "Templeton", "state": "CA" }, "geometry": { "type": "Point", "coordinates": [ -120.84121, 35.53627 ] } },
{ "type": "Feature", "properties": { "lon": -120.685727, "lat": 35.627303, "owner": "Desparada Wines", "name": "Desparada", "street": "1227 Paso Robles St", "city": "Paso Robles", "state": "CA" }, "geometry": { "type": "Point", "coordinates": [ -120.68573, 35.6273 ] } },
{ "type": "Feature", "properties": { "lon": -120.685727, "lat": 35.627303, "owner": "Herman Story Wines, Inc", "name": null, "street": "1227 Paso Robles St", "city": "Paso Robles", "state": "CA" }, "geometry": { "type": "Point", "coordinates": [ -120.68573, 35.6273 ] } }
]
}
